주차장명,주차장유형,소재지도로명주소,소재지지번주소,위도,경도,제공기관명
탄방동탄방역주변,노상,대전광역시 서구 계룡로553번길38,대전광역시 서구 탄방동667,,,대전광역시
유성IC만남의광장,노상,대전광역시 유성구 월드컵대로 31 (장대동),대전광역시 유성구 장대동 240-43,,,대전광역시
세천7 공한지 주차장,노외,,대전광역시 동구 세천동 47-11,,,대전광역시
세천8 공한지 주차장,노외,,대전광역시 동구 세천동 76-1,,,대전광역시
신도시장 주차장,노외,대전광역시 동구 비래서로42번길,대전광역시 동구 가양2동 39-6,,,대전광역시
신상동 안아감마을 공동주차장,노외,,대전광역시 동구 신상동 150-1,,,대전광역시
신하동 마을공영주차장,노외,,대전광역시 동구 신하동 343-15,,,대전광역시
신한은행 노외공영주차장(제2주차장),노외,대전광역시 동구 대전로 779번길 8,대전광역시 동구 원동 51-12,,,대전광역시
역전시장 공영주차장,노외,,대전광역시 동구 원동 31-1,,,대전광역시
용운시장 주차장,노외,대전광역시 동구 새울로 91번길,대전광역시 동구 용운 349-4,,,대전광역시
용전동 제2공영주차장(BBS부지),노외,대전광역시 동구 동서대로,대전광역시 동구 용전동 62-21,,,대전광역시
용전동노외공영주차장,노외,대전광역시 동구 동서대로 1659,대전광역시 동구 용전동 143-22,,,대전광역시
용전동주민센터옆공영주차장,노외,대전광역시 동구 계족로 517번길,대전광역시 동구 용전동 28-34,,,대전광역시
인동물류센터주변공영주차장,노외,대전광역시 동구 대전로 679,대전광역시 동구 인동 44-10,,,대전광역시
인동시장노외공영주차장,노외,대전광역시 동구 대전천동로,대전광역시 동구 인동 30-1,,,대전광역시
정동 노외공영주차장,노외,대전광역시 동구 역전3길,대전광역시 동구 정동 3-4,,,대전광역시
중앙시장 공영주차빌딩 주차장(제1주차장),노외,대전광역시 동구 중앙로 200번길 70,대전광역시 동구 원동 85-1,,,대전광역시
중앙시장 제3공영주차장,노외,대전광역시 동구 대전로 791번길,대전광역시 동구 중동93-2,,,대전광역시
천동 주차장,노외,,대전광역시 동구 천동 513,,,대전광역시
판암주공5·6단지주변공영주차장,노외,대전광역시 동구 동부로 73,대전광역시 동구 판암동 237-2,,,대전광역시
한약·인쇄거리 노외공영주차장,노외,대전광역시 동구 태전로 27,"대전광역시 동구 중동 9-5, 10-16",,,대전광역시
대신동 하상주차장,노외,"대전광역시 동구 대동천좌안, 대동천우안",대전광역시 동구 대동천,,,대전광역시
선화교 하상주차장(삼성동),노외,대전광역시 동구 대전천동로,대전광역시 동구 대전천,,,대전광역시
소제동 하상주차장,노외,"대전광역시 동구 대동천좌안, 대동천우안",대전광역시 동구 대동천,,,대전광역시
유천동제1노외,노외,,대전광역시 중구 유천동 276-18,36.312927514,127.3951988,대전광역시 중구
대성동 노외공영주차장,노외,,대전광역시 동구 대성동 429,,,대전광역시
대전천변 노외공영주차장,노외,대전광역시 동구 선화로 192번길,대전광역시 동구 중동 51-16,,,대전광역시
대전천주변노외공영주차장,노외,대전광역시 동구 선화로192번길,대전광역시 동구 중동 51-16,,,대전광역시
세천4 공한지 주차장,노외,대전광역시 동구 세천공원로35번길,대전광역시 동구 세천동 321-4,,,대전광역시
세천5 공한지 주차장,노외,대전광역시 동구 세천로,대전광역시 동구 세천동 18-21,,,대전광역시
세천6 공한지 주차장,노외,,대전광역시 동구 세천동 35-2,,,대전광역시
대흥동제4노외,노외,,대전광역시 중구 대흥동 480,36.32610814,127.4225566,대전광역시 중구
부사시장공영주차장,노외,대전광역시 중구 보문로48번길 13,대전광역시 중구 부사동 150-1,36.31391761,127.4350412,대전광역시 중구
부사동제4노외,노외,대전광역시 중구 대종로 315번길 34-17,대전광역시 중구 부사동 133-2,36.3143023,127.4332909,대전광역시 중구
안영동제4노외,노외,대전광역시 중구 뿌리공원로 47,대전광역시 중구 안영동 71-7,36.28533721,127.3844931,대전광역시 중구
오류동제3노외,노외,대전광역시 중구 보문산공원로497번길 81-7,대전광역시 중구 대사동 197-6,36.31047717,127.4195651,대전광역시 중구
석교동제2노외,노외,대전광역시 중구 보문로47번길 146,대전광역시 중구 석교동 12-10,36.30986902,127.4425659,대전광역시 중구
대사동제3노외,노외,대전광역시 중구 보문산공원로 497번길 72,대전광역시 중구 대사동 142-14,36.31094828,127.4189042,대전광역시 중구
대사동제4노외,노외,,대전광역시 중구 대사동 233-38,36.31678122,127.4208903,대전광역시 중구
대사동제5노외,노외,,대전광역시 중구 대사동 233-191,36.3169709,127.4209979,대전광역시 중구
선화동제4노외,노외,,대전광역시 중구 선화동 381-108,36.32465605,127.4167534,대전광역시 중구
문화2동제1노외,노외,대전광역시 중구 보문산로171번길 34,대전광역시 중구 문화동 571-14,36.30726836,127.3991626,대전광역시 중구
문창시장제2공영주자창,노외,,대전광역시 중구 문창동 122-9,36.31553812,127.436165,대전광역시 중구
목동제2노외,노외,대전광역시 중구 동서대로1352번길 29,대전광역시 중구 목동 131-10,36.32893928,127.4099207,대전광역시 중구
태평시장공영주차장,노외,대전광역시 중구 수침로55번길 56,대전광역시 중구 태평동 333-8,36.3259447,127.397699,대전광역시 중구
대사동제6노외,노외,대전광역시 중구 충무로74번길 10,대전광역시 중구 대사동 129-6,36.316668,127.424859,대전광역시 중구
대사동제7노외,노외,대전광역시 중구 보문산공원로 505,대전광역시 중구 대사동 203-5,36.3137673,127.4223326,대전광역시 중구
선화동제5노외,노외,,대전광역시 중구 선화동 367-2,36.3280732,127.4186346,대전광역시 중구
산성동제3노외,노외,,대전광역시 중구 산성동 164-15,36.3078283361,127.3869401,대전광역시 중구
용두동제2노외,노외,,대전광역시 중구 용두동 34-26,36.3272584303,127.4078469,대전광역시 중구
석교동제3노외,노외,,대전광역시 중구 석교동 34-26,36.30724824,127.4418674,대전광역시 중구
호동제1노외,노외,,대전광역시 중구 호동 17-12,36.3040151486,127.4482490529,대전광역시 중구
태평2동제3노외,노외,,대전광역시 중구 태평동 378-29,36.32686868,127.3940601,대전광역시 중구
사정동제1노외,노외,,대전광역시 중구 사정동 397,36.29711219,127.3840357,대전광역시 중구
사정동제2노외,노외,,대전광역시 중구 사정동 403,36.29642442,127.3851929,대전광역시 중구
안영동제1노외,노외,대전광역시 중구 뿌리공원로 47,대전광역시 중구 안영동 71-1,36.28533721,127.3844931,대전광역시 중구
선화동제3노외,노외,대전광역시 중구 선화로 50,대전광역시 중구 선화동 889,36.32671701,127.4144851,대전광역시 중구
산성시장제2노외,노외,대전광역시 중구 대둔산로 412,대전광역시 중구 산성동 284-9,36.305887,127.3870556,대전광역시 중구
산성시장제1노외,노외,대전광역시 중구 대둔산로408번길 28,대전광역시 중구 산성동 282-5,36.30557678,127.3880136,대전광역시 중구
선화동제1노외,노외,대전광역시 중구 대종로561번길 15,대전광역시 중구 선화동 136-11,36.33230442,127.4202841,대전광역시 중구
"홍도빌라 주변(흑정골길, 3길, 6길)",노상,대전광역시 동구 옛신탄진로 55번길,대전광역시 동구 홍도동 175-15~139-11번지선,,,대전광역시
가양동 노외공영주차장,노외,,대전광역시 동구 가양동 435-16,,,대전광역시
가양동체육센터앞주차장,노외,대전광역시 동구 가양로,대전광역시 동구 가양동 709-2,,,대전광역시
낭월동 공한지 주차장,노외,,대전광역시 동구 낭월동 584,,,대전광역시
대동공영주차장,노외,대전광역시 동구 대동로 49,대전광역시 동구 대동 25-15,,,대전광역시
대동복지센터주차장,노외,대전광역시 동구 이화로35번길,대전광역시 동구 대동 1-8,,,대전광역시
대동이스트시티옆 공영주차장,노외,,대전광역시 동구 대동 대동 107-37,,,대전광역시
"홍도동 평화로운@, 대호빌라 주변",노상,대전광역시 동구 홍도로 33번길,대전광역시 동구 홍도동 89-92번지선,,,대전광역시
홍도동 시영(아) 1동 옆,노상,대전광역시 동구 대전로1002번길,대전광역시 동구 홍도동 137-3~137-3번지선,,,대전광역시
홍도동 시영(아) 3동 담길,노상,대전광역시 동구 흑정골길,대전광역시 동구 홍도동 135-2번지선,,,대전광역시
홍도동 시영아파트 주변,노상,"대전광역시 동구 동산1길, 흑정골길, 동산5길","대전광역시 동구 동산1길, 흑정골길, 동산5길",,,대전광역시
용호동주차장,노외,대전광역시 대덕구 신탄진로 756번안길,대전광역시 대덕구 용호동 177-1,36.436075701,127.4509039142,대전광역시
삼정동 제1공영주차장,노외,대전광역시 대덕구 대청로 424번길,대전광역시 대덕구 삼정동 310-1,36.4500112782,127.4668463,대전광역시
중리행복길①공영주차장,노외,대전광역시 대덕구 중리남로27번길 5,대전광역시 대덕구 중리동 196-10,36.3607014176,127.4288143,대전광역시
중리행복길②공영주차장,노외,대전광역시 대덕구 중리동로17번길 32,대전광역시 대덕구 중리동 197-17,36.360553,127.427937,대전광역시
중리만남공영주차장,노외,대전광역시 대덕구 중리남로8번길 3,대전광역시 대덕구 중리동 180-1,36.36149254,127.4305618,대전광역시
비래동 제2공영주차장,노외,대전광역시 대덕구 비래골길,대전광역시 대덕구 비래동 412-2,36.3662118803,127.4474970771,대전광역시
중리구봉공영주차장,노외,대전광역시 대덕구 중리남로40번길 13,대전광역시 대덕구 중리동 164-5,36.361489,127.427061564,대전광역시
용호마을테마먹거리촌공영주차장,노외,대전광역시 대덕구 대청로 238,대전광역시 대덕구 용호동 44-2,36.4483128,127.4512963186,대전광역시
한촌공원 주차장,노외,대전광역시 대덕구 한밭대로 114번길 34-8,대전광역시 대덕구 중리동 223-1,36.3571560421,127.421785933,대전광역시
비래동로 31번길 공영주차장,노외,대전광역시 대덕구 비래동로31번길 13,대전광역시 대덕구 비래동 128-4,36.3566123568,127.4497836684,대전광역시
비래동로 23번길 공영주차장,노외,대전광역시 대덕구 비래동로23번길 28,대전광역시 대덕구 비래동 128-10,36.356673,127.4490228824,대전광역시
회덕동 공영주차장,노외,대전광역시 대덕구 대전로 1378번길,대전광역시 대덕구 읍내동 247-3,36.3767305,127.4217681,대전광역시
산디마을 공영주차장,노외,대전광역시 대덕구 산디로,대전광역시 대덕구 장동 670,36.3952939,127.4424192,대전광역시
석봉과선교 철도주변 공영주차장,노외,대전광역시 대덕구 석봉로58번길,대전광역시 대덕구 석봉동 387-3,36.4465709636,127.428665822,대전광역시
새뜸마을안길 공영주차장,노외,대전광역시 대덕구 산디로132번길,대전광역시 대덕구 장동 783,36.4028775168,127.4359917,대전광역시
장동욕골지구 공영주차장,노외,대전광역시 대덕구 장동로 223-10,대전광역시 대덕구 장동 367-4,36.4140307,127.4380339464,대전광역시
산중골주차장,노외,대전광역시 대덕구 계족로740번길 80,대전광역시 대덕구 읍내동 11-1,36.3782574602,127.4314525,대전광역시
신대지구 제1공영주차장,노외,대전광역시 대덕구 회덕로 21번길,대전광역시 대덕구 신대동 357-5,36.3977378,127.4205356,대전광역시
신대지구 제2공영주차장,노외,대전광역시 대덕구 회덕로 33번길,대전광역시 대덕구 신대동 238-1,36.3982007868,127.4187870064,대전광역시
비래동공영주차장,노외,대전광역시 대덕구 비래동로16번길 49,대전광역시 대덕구 비래동 143-7,36.354602,127.4525444018,대전광역시
대덕산업단지주차장,노외,대전광역시 대덕구 문평동로 16,대전광역시 대덕구 문평동 80-1,36.4461062049,127.4035878,대전광역시
이현동주차장,노외,대전광역시 대덕구 대청호수로1326번길 75,대전광역시 대덕구 이현동 190,36.4137390151,127.4660133613,대전광역시
남경지구 제1공영주차장,노외,대전광역시 대덕구 남경마을로 3번길,대전광역시 대덕구 신탄진동 266-15,36.4435272113,127.431785475,대전광역시
남경지구 제2공영주차장,노외,대전광역시 대덕구 남경마을로 9번길,대전광역시 대덕구 신탄진동 295-128,36.4428146,127.4304232416,대전광역시
남경지구 제3공영주차장,노외,대전광역시 대덕구 남경마을로 9번길,대전광역시 대덕구 신탄진동 295-137,36.4429067,127.4314271042,대전광역시
송촌도서관 주차장,노외,대전광역시 대덕구 송촌로 59,대전광역시 대덕구 송촌동 165,36.360082,127.4401573,대전광역시
벌말지구 주차장,노외,대전광역시 대덕구 대청로 526번길 33,대전광역시 대덕구 미호동 220-6,36.4672054917,127.4708973,대전광역시
중리미래공영주차장,노외,대전광역시 대덕구 중리로75번길 9,대전광역시 대덕구 중리동 363-23,36.3656212,127.4244456,대전광역시
신흥동 제1치수교 하상주차장,노외,대전광역시 동구 대동천우안2길,대전광역시 동구 대동천,,,대전광역시
동춘당로94번길 노상주차장,노상,대전광역시 대덕구 동춘당로94번길,대전광역시 대덕구 송촌동 525,36.3676139407,127.4378139512,대전광역시
비래동로노상공영주차장,노상,대전광역시 대덕구 비래동로 10,대전광역시 대덕구 비래동 140-5,36.3549079867,127.4500228,대전광역시
계족산로81번길 노상주차장,노상,대전광역시 대덕구 계족산로81번길,대전광역시 대덕구 송촌동 534,36.3652487348,127.4387394196,대전광역시
동춘당생애길①공영주차장,노외,대전광역시 대덕구 계족산로 2,대전광역시 대덕구 중리동 507-1,36.3613055276,127.4320468,대전광역시
동춘당생애길②공영주차장,노외,대전광역시 대덕구 계족산로 2,대전광역시 대덕구 중리동 506,36.3613055276,127.4320468,대전광역시
중리정려각공영주자장,노외,대전광역시 대덕구 송촌북로5번길 10,대전광역시 대덕구 중리동 498-2,36.3629023,127.4363864,대전광역시
송촌공영주차장,노외,대전광역시 대덕구 계족산로81번길 11,대전광역시 대덕구 송촌동 478-1,36.3636408,127.4399312,대전광역시
송촌먹자골목공영주차장,노외,대전광역시 대덕구 송촌북로32번길 28,대전광역시 대덕구 송촌동 458,36.3654744,127.4377262,대전광역시
송촌주민센터공영주차장,노외,대전광역시 대덕구 동춘당로114번길 9,대전광역시 대덕구 송촌동 460-1,36.3670091897,127.4382045,대전광역시
읍내어울림공영주차장,노외,대전광역시 대덕구 계족로 728,대전광역시 대덕구 읍내동 575-5,36.3763015,127.4277683,대전광역시
송촌소리공영주차장,노외,대전광역시 대덕구 계족산로81번길 116,대전광역시 대덕구 송촌동 448-1,36.36731791,127.4364683,대전광역시
송촌대양공영주차장,노외,대전광역시 대덕구 계족산로36번길 71,대전광역시 대덕구 송촌동 487-1,36.362229,127.439054,대전광역시
송촌진가쟁이공영주차장,노외,대전광역시 대덕구 선비마을로5번길 26,대전광역시 대덕구 송촌동 505-2,36.3628019,127.4451812,대전광역시
법동생활체육공영주차장,노외,대전광역시 대덕구 선비마을로 260,대전광역시 대덕구 법동 440-1,36.3749852,127.4283643274,대전광역시
대화동 두레 주차장,노외,대전광역시 대덕구 대화15길 34,대전광역시 대덕구 대화동 16-25,36.3634035,127.417612,대전광역시
신탄진역앞공영주차장,노외,대전광역시 대덕구 신탄진동로7번길 64,대전광역시 대덕구 신탄진동 140-25,36.4504164055,127.4297235,대전광역시
"용운동 삼정하이츠, 문충사 주변",노상,대전광역시 동구 동부로73번길,"대전광역시 동구 용운동 363, 356-1번지선",,,대전광역시
용운동 선량마을 노상주차장,노상,대전광역시 동구 대송길 27,대전광역시 동구 용운동 54,,,대전광역시
용운동 일반통행길(하행길),노상,대전광역시 동구 계족로140번길,대전광역시 동구 용운동 447-6~489-7번지선,,,대전광역시
용운동 일방통행길(상행길),노상,대전광역시 동구 용운로67,대전광역시 동구 용운동 487~451-18,,,대전광역시
용운동 주공저층아파트 담길,노상,대전광역시 동구 새울로,대전광역시 동구 용운동282-277번지선,,,대전광역시
우송대학교 서 캠퍼스 후문,노상,대전광역시 동구 가양남로,대전광역시 동구 자양동 308-9~321-10번지선,,,대전광역시
원동중동 천변 노상,노상,대전광역시 동구 대전천동로,"대전광역시 동구 원동 85-61번지선, 중동 47-26번지선",,,대전광역시
자양동 동아아파트 담길,노상,대전광역시 동구 성동로,"대전광역시 동구 동아@ 102,103,105동 담길",,,대전광역시
자양동 쌍용주유소 뒷길,노상,대전광역시 동구 백룡로5번길,대전광역시 동구 자양동 193-10～197-15번지선,,,대전광역시
자양동 우송대학교 동 캠퍼스 담길,노상,대전광역시 동구 백룡길57번길,대전광역시 동구 자양동 98-17~97-3번지선,,,대전광역시
판암1동 주공(아) 207-208동 담길,노상,대전광역시 동구 판암로,대전광역시 동구 판암2차주공@ 담길,,,대전광역시
판암1동 주공(아) 209동 담길,노상,대전광역시 동구 판암로,대전광역시 동구 판암2차주공@ 담길,,,대전광역시
판암1동 주공(아) 211동 담길,노상,대전광역시 동구 판암로,대전광역시 동구 판암2차주공@ 담길,,,대전광역시
판암2동 판암면옥 옆길,노상,대전광역시 동구 옻밭5길,대전광역시 동구 판암동503-2~507-2번지선,,,대전광역시
판암IC옆(개심사 가는 방향),노상,대전광역시 동구 함지뱅이길,대전광역시 동구 판암1동 218-2번지선,,,대전광역시
판암동 복개도로 위(삼성전자 판매장 뒤),노상,대전광역시 동구 대동천우안1길,대전광역시 동구 판암2동 598,,,대전광역시
판암동 신영유통 앞,노상,대전광역시 동구 함지뱅이길,대전광역시 동구 판암동174-1,,,대전광역시
합내길(구 가양1동사무소 앞),노상,대전광역시 동구 합내로,대전광역시 동구 가양1동 446-34~530-2번지선,,,대전광역시
"현암1,8,10,11길(삼성동 343번지 주변)",노상,대전광역시 동구 대전천북로,"대전광역시 동구 삼성동 342, 343, 344, 355번지",,,대전광역시
홍도동 경성3차@~청룡@ 주변,노상,대전광역시 동구 동산초교로,대전광역시 동구 홍도동 64-1~57-5번지 주변,,,대전광역시
홍도동 동산어린이공원 주변,노상,대전광역시 동구 옛신탄진로81번길 20,대전광역시 동구 홍도동 111-1번지,,,대전광역시
대치리 공영주차장,노외,,전라남도 담양군 대전면 대치리 512-1,35.28126993,126.8865248,전라남도 담양군
진잠우체국옆,노상,"대전광역시 유성구 원내로39번길 25, (원내동)",대전광역시 유성구 원내동 92-14,36.30105629,127.3200719,대전광역시 유성구
진잠우체국 앞,노상,"대전광역시 유성구 원내로39번길 17, (원내동)",대전광역시 유성구 원내동 93-12,36.30059598,127.3199535,대전광역시 유성구
카운티스 앞,노상,,대전광역시 유성구 노은동 572,36.3704034,127.3162162,대전광역시 유성구
동원수산 앞,노상,,대전광역시 유성구 노은동 594,36.36762703,127.3192827,대전광역시 유성구
반석동공영주변,노상,,대전광역시 유성구 반석동 641,36.39130229,127.3144842,대전광역시 유성구
송강청솔@~송강@,노상,"대전광역시 유성구 와룡로136번길 15, (봉산동, 하늘바람휴먼시아)",대전광역시 유성구 봉산동 295,36.43825732,127.3824562,대전광역시 유성구
유성장로교회앞,노상,"대전광역시 유성구 계룡로16번길 43, (구암동)",대전광역시 유성구 구암동 590-21,36.3545368,127.3313405,대전광역시 유성구
유성고등학교 주변,노상,"대전광역시 유성구 도안대로549번길 60, (구암동)",대전광역시 유성구 구암동 611-31,36.34971868,127.3368407,대전광역시 유성구
성원상떼빌 주변,노상,"대전광역시 유성구 온천서로 36-19, (장대동, 성원상떼빌)",대전광역시 유성구 장대동 376-2,36.35834383,127.3401439,대전광역시 유성구
계룡스파텔 옆,노상,"대전광역시 유성구 온천로 81, (봉명동)",대전광역시 유성구 봉명동 539-1,36.35513271,127.3478811,대전광역시 유성구
청주해장국 앞,노상,"대전광역시 유성구 대학로 23, (봉명동)",대전광역시 유성구 봉명동 535-7,36.35606304,127.341754506,대전광역시 유성구
유성우체국 앞,노상,"대전광역시 유성구 온천로 45, (봉명동)",대전광역시 유성구 봉명동 536-8,36.35581805,127.3430064,대전광역시 유성구
아드리아호텔 앞,노상,"대전광역시 유성구 온천로 27, (봉명동)",대전광역시 유성구 봉명동 442-4,36.35601339,127.340832,대전광역시 유성구
유성호텔 앞,노상,,대전광역시 유성구 봉명동 528,36.35414684,127.3390205,대전광역시 유성구
계룡스파텔 정문앞,노상,"대전광역시 유성구 온천로 81, (봉명동)",대전광역시 유성구 봉명동 539-1,36.35513271,127.3478811,대전광역시 유성구
유성우체국 옆,노상,"대전광역시 유성구 온천로 51, (봉명동)",대전광역시 유성구 봉명동 537-8,36.35565938,127.3436539,대전광역시 유성구
"장명교~경원장, 파라곤모텔앞",노상,"대전광역시 유성구 계룡로87번길 72, (봉명동)",대전광역시 유성구 봉명동 535-2,36.35713713,127.3419591,대전광역시 유성구
상수도사업본부 유성사업소 주변,노상,"대전광역시 유성구 한밭대로492번길 26-14, (봉명동)",대전광역시 유성구 봉명동 665-6,36.3587336,127.3521076,대전광역시 유성구
농촌공사 주변,노상,"대전광역시 유성구 한밭대로313번길 21, (장대동)",대전광역시 유성구 장대동 24-2,36.36615237,127.3359327,대전광역시 유성구
장대동공영주차장주변,노상,"대전광역시 유성구 유성대로729번길 40, (장대동)",대전광역시 유성구 장대동 263-4,36.36000119,127.331851,대전광역시 유성구
학사마을 주변,노상,"대전광역시 유성구 유성대로822번길 16, (장대동)",대전광역시 유성구 장대동 317-3,36.3646569,127.3393000907,대전광역시 유성구
월드컵패밀리타운 주변,노상,"대전광역시 유성구 유성대로783번길 38, (장대동, 월드컵패밀리타운)",대전광역시 유성구 장대동 323-2,36.364521,127.3359131,대전광역시 유성구
장대동 364일원,노상,,대전광역시 유성구 장대동 364,36.35935053,127.3396563,대전광역시 유성구
궁동 457-1일원,노상,"대전광역시 유성구 문화원로37번길 36, (궁동)",대전광역시 유성구 궁동 457-3,36.36189089,127.3410834,대전광역시 유성구
유림공원주차장,노상,,대전광역시 유성구 봉명동 496-1,36.36038048,127.3550022,대전광역시 유성구
유성구청 뒤,노상,"대전광역시 유성구 대학로 211, (어은동)",대전광역시 유성구 어은동 109,36.36258889,127.3567446,대전광역시 유성구
유성구청~어은공원,노상,"대전광역시 유성구 대학로 211, (어은동)",대전광역시 유성구 어은동 109,36.3625913295,127.3567411078,대전광역시 유성구
전민동 458-13일원,노상,"대전광역시 유성구 전민로 26-1, (전민동)",대전광역시 유성구 전민동 458-13,36.3965338208,127.4020579782,대전광역시 유성구
엑스포코아 앞,노상,"대전광역시 유성구 엑스포로 488, (전민동)",대전광역시 유성구 전민동 466-3,36.3999901849,127.4057005887,대전광역시 유성구
도룡동 우성(아)앞,노상,,대전광역시 유성구 도룡동 401-3,36.38653661,127.3537055,대전광역시 유성구
신성동 한울(아)옆,노상,,대전광역시 유성구 신성동 106,36.39007699,127.3500981,대전광역시 유성구
숯골원냉면 주변,노상,"대전광역시 유성구 신성로84번길 18-1, (신성동, 대원빌라)",대전광역시 유성구 신성동 136-4,36.3900622512,127.3500837767,대전광역시 유성구
신성동 첨단주유소~신성삼거리,노상,"대전광역시 유성구 가정로 43, (신성동, 한울아파트)",대전광역시 유성구 신성동 160-1,36.3872836969,127.3468010808,대전광역시 유성구
럭키하나아파트 주변,노상,"대전광역시 유성구 신성남로 27, (신성동)",대전광역시 유성구 신성동 206,36.3864488947,127.3480569275,대전광역시 유성구
신성동애경기술원전면,노상,"대전광역시 유성구 신성남로 120, (신성동)",대전광역시 유성구 신성동 217-2,36.3919595633,127.3523247754,대전광역시 유성구
주막공원~숯골길,노상,,대전광역시 유성구 신성동 466,36.34561602,127.2969923,대전광역시 유성구
도덕봉가든일원,노상,,대전광역시 유성구 덕명동 171-96,36.36348703,127.3171235,대전광역시 유성구
요한이네할인매장 맞은편~유진아이티 맞은편,노상,"대전광역시 유성구 노은서로 6, (노은동)",대전광역시 유성구 노은동 562-9,36.3634901369,127.3171230769,대전광역시 유성구
대전원예농협~대신수산,노상,"대전광역시 유성구 노은동로 8, (노은동)",대전광역시 유성구 노은동 567-3,36.3630025789,127.3188583866,대전광역시 유성구
유성경찰서~죽동 622,노상,"대전광역시 유성구 북유성대로 112, (죽동)",대전광역시 유성구 죽동 629,36.3787828301,127.3254159768,대전광역시 유성구
원내동 중앙장로교회 앞,노상,"대전광역시 유성구 진잠로102번길 75, (원내동, 이화빌라)",대전광역시 유성구 원내동 92-10,36.301119266,127.3197161964,대전광역시 유성구
죽동장애인복지관~북대전세무서,노상,"대전광역시 유성구 북유성대로 166, (죽동)",대전광역시 유성구 죽동 600,36.3814083808,127.3233636789,대전광역시 유성구
수통골 공영주차장 입구 주변,노상,,대전광역시 유성구 계산동 352-8,36.30237214,127.331284,대전광역시 유성구
길산골프연습장 앞,노상,,대전광역시 유성구 원내동 761,36.37955204,127.3259331,대전광역시 유성구
유성경찰서 인근,노상,,대전광역시 유성구 죽동 648,36.38752856,127.3164902,대전광역시 유성구
반석마을 2단지 207동 옆라인,노상,,대전광역시 유성구 지족동 1001,36.35393075,127.3358023,대전광역시 유성구
유성성당 옆,노상,"대전광역시 유성구 계룡로46번길 23, (봉명동)",대전광역시 유성구 봉명동 568-1,36.3539355779,127.3358019994,대전광역시 유성구
온천1동주민센터앞,노상,"대전광역시 유성구 도안대로589번길 35, (봉명동)",대전광역시 유성구 봉명동 451,36.3531160314,127.3389679142,대전광역시 유성구
덕명지구 공영(2),노외,,대전광역시 유성구 구암동 657,36.35861162,127.3093217,대전광역시 유성구
대우이수드림월드아파트 옆,노상,,대전광역시 유성구 장대동 343,36.36747103,127.3172113,대전광역시 유성구
권인순 김치찌개 앞,노상,"대전광역시 유성구 노은서로76번길 77, (노은동)",대전광역시 유성구 노은동 517-3,36.3674744456,127.3172113388,대전광역시 유성구
메가시티주변,노상,"대전광역시 유성구 왕가봉로24번길 15, (노은동)",대전광역시 유성구 노은동 554-3,36.3658601257,127.316549268,대전광역시 유성구
열매마을4단지 앞,노상,"대전광역시 유성구 은구비로 12, (지족동)",대전광역시 유성구 지족동 884-4,36.3757499596,127.3163137458,대전광역시 유성구
관평동1공영,노외,,대전광역시 유성구 관평동 1175,36.42895434,127.3925893,대전광역시 유성구
관평동2공영,노외,,대전광역시 유성구 관평동 734,36.4268593,127.3917692,대전광역시 유성구
관평동3공영,노외,,대전광역시 유성구 관평동 788,36.42507519,127.3900657,대전광역시 유성구
관평동4공영,노외,,대전광역시 유성구 관평동 932,36.42397403,127.3915128,대전광역시 유성구
관평동5공영,노외,,대전광역시 유성구 관평동 1052,36.4220249,127.3963678,대전광역시 유성구
용산동공영,노외,,대전광역시 유성구 용산동 624,36.43576989,127.3859558,대전광역시 유성구
송강동(프라자옆)공영,노외,,대전광역시 유성구 송강동 16-1,36.43442089,127.3865129,대전광역시 유성구
송강동(GS마트앞)공영,노외,"대전광역시 유성구 구즉로58번길 15-12, (송강동)",대전광역시 유성구 송강동 36-2,36.44088504,127.3852017,대전광역시 유성구
봉산동공영,노외,,대전광역시 유성구 봉산동 299,36.38230199,127.3229446,대전광역시 유성구
죽동공영,노외,,대전광역시 유성구 죽동 598,36.39130229,127.3144842,대전광역시 유성구
반석동공영,노외,,대전광역시 유성구 반석동 641,36.38669011,127.3793076,대전광역시 유성구
도룡동공영(上),노외,,대전광역시 유성구 도룡동 385-1,36.38466222,127.3792903,대전광역시 유성구
도룡동공영(下),노외,,대전광역시 유성구 도룡동 395-10,36.39026394,127.349673,대전광역시 유성구
신성동 제1공영,노외,,대전광역시 유성구 신성동 137-2,36.38852014,127.3488626,대전광역시 유성구
신성동 제2공영,노외,,대전광역시 유성구 신성동 211-2,36.35676988,127.3103296,대전광역시 유성구
덕명지구 공영(1),노외,,대전광역시 유성구 덕명동 544,36.36048843,127.3081463,대전광역시 유성구
삼성동 동산교회 앞길(오정철로길),노상,대전광역시 동구 대전로987번길,대전광역시 동구 삼성동 379-1~384-14번지선,,,대전광역시
삼성동 삼성물류센터 주변,노상,대전광역시 동구 현암시장5길,대전광역시 동구 삼성동 395번지 주변,,,대전광역시
삼성동 삼성철교,노상,대전광역시 동구 대전로968,대전광역시 동구 삼성동 솔랑마을@ 뒤,,,대전광역시
삼성동 중부소방서 주변,노상,대전광역시 동구 태전로,대전광역시 동구 태전로137번길(삼성동 322-4),,,대전광역시
"삼성동 한국아파트 주변(현암로18번길, 태전로174번 안길)",노상,"대전광역시 동구 보건소 4,5길","대전광역시 동구 삼성동 373, 382,383번지 주변",,,대전광역시
삼정동구정골마을공영주차장,노외,대전광역시 동구 세천공원로 20번길,대전광역시 동구 삼정동 70번지,,,대전광역시
성남동 효촌아파트 담길,노상,대전광역시 동구 계족로382번길,"대전광역시 동구 효촌A 209,210,211동 담길",,,대전광역시
신안동 한국철도시설공단 뒷길,노상,대전광역시 동구 부흥길,대전광역시 동구 신안동 262~293번지선,,,대전광역시
신흥동 복합상가건물 뒤,노상,대전광역시 동구 장수1길,대전광역시 동구 신흥동 12-8~13-5번지선,,,대전광역시
신흥삼거리~제1치수교,노상,대전광역시 동구 충무로길,대전광역시 동구 충무로길(구 신흥동사무소 앞),,,대전광역시
심영목재상사 앞,노상,대전광역시 동구 대전로90번길,대전광역시 동구 삼성동 296-19,,,대전광역시
용운동 도리어린이공원 주변,노상,대전광역시 동구 새울로23번길,대전광역시 동구 용운동 284번지 주변,,,대전광역시
용운동 모리아파트 담길,노상,대전광역시 동구 동부로85번길,대전광역시 동구 용운동 319-1번지 앞,,,대전광역시
가양2동 대주파크빌(아) 뒷길,노상,대전광역시 동구 동대전로 248번길,대전광역시 동구 가양동 151-653번지선,,,대전광역시
가양동 가양천 복개길,노상,,대전광역시 동구 가양동 아침마을@~가양초교 맞은편,,,대전광역시
가양동 가양천 복개길,노상,,대전광역시 동구 가양동 대전한일신협~영동올갱이해장국,,,대전광역시
"계족로 409, 417, 423번길",노상,대전광역시 동구 계족로 423번길,"대전광역시 동구 홍도동 2-4, 74-5, 6-5, 7-8번지선",,,대전광역시
녹색주차마을(용운동),노상,"대전광역시 동구 시장길, 산성3길","대전광역시 동구 용운동 390-6, 시장길, 산성3길",,,대전광역시
녹색주차마을(자양동),노상,대전광역시 동구 안터5길,"대전광역시 동구 자양동 210-11,",,,대전광역시
대동 보현문화회관 뒷길,노상,대전광역시 동구 대자양5길,대전광역시 동구 자양동 207-34~205-12번지선,,,대전광역시
대동복개도로(대동시장길),노상,대전광역시 동구 대동복개천,대전광역시 동구 대동복개천(새들뫼@ 앞길),,,대전광역시
대동복개도로(대동시장길),노상,대전광역시 동구 대동복개천,대전광역시 동구 대동복개천(새들뫼@ 앞길),,,대전광역시
대전천우안8길(북부교~현암교),노상,대전광역시 동구 대전천북로,대전광역시 동구 삼성동 312-6~330-13번지선,,,대전광역시
삼성동 건강보험관리공단 주변,노상,"대전광역시 동구 현암2,3,4,5길",대전광역시 동구 삼성동 398-3번지 주변,,,대전광역시
"삼성동 검배2길, 4길, 5길",노상,대전광역시 동구 동서대로,"대전광역시 동구 동서대로104번길, 1520번길(삼성동 309,310,319,320번지선)",,,대전광역시
삼성동 동구보건소 담길,노상,대전광역시 동구 현암로18번길,대전광역시 동구 삼성동 374-1번지 옆,,,대전광역시
덕명지구 공영(3),노외,,대전광역시 유성구 구암동 677,36.35676988,127.3103296,대전광역시 유성구
덕명지구 공영(4),노외,,대전광역시 유성구 덕명동 544,36.35601255,127.3102806,대전광역시 유성구
덕명지구 공영(5),노외,,대전광역시 유성구 덕명동 545,36.35782184,127.3067771,대전광역시 유성구
덕명지구 공영(6),노외,,대전광역시 유성구 덕명동 530,36.36000119,127.331851,대전광역시 유성구
장대동 공영,노외,"대전광역시 유성구 유성대로729번길 40, (장대동)",대전광역시 유성구 장대동 263-2,36.3600000785,127.3318520084,대전광역시 유성구
궁동공영,노외,"대전광역시 유성구 대학로163번길 18, (궁동)",대전광역시 유성구 궁동 428-2,36.3609700889,127.3517659929,대전광역시 유성구
전민동주민센터공영,노외,,대전광역시 유성구 전민동 300-4,36.3985829,127.4034159,대전광역시 유성구
전민동 제1공영,노외,,대전광역시 유성구 전민동 332-4,36.3986886,127.4011186,대전광역시 유성구
전민동 제2공영,노외,,대전광역시 유성구 전민동 346-3,36.30263057,127.314814,대전광역시 유성구
교촌동공영,노외,,대전광역시 유성구 교촌동 636-1,36.29952256,127.3166226,대전광역시 유성구
원내동공영,노외,"대전광역시 유성구 원내로 5, (원내동)",대전광역시 유성구 원내동 213-4,36.2995240089,127.3166272536,대전광역시 유성구
원내동공영,노외,"대전광역시 유성구 진잠로66번길 45, (원내동)",대전광역시 유성구 원내동 341-6,36.2983223514,127.3193785861,대전광역시 유성구
세동 공영주차장,노외,,대전광역시 유성구 세동 136,36.34222184,127.314702,대전광역시 유성구
학하지구 공영,노외,,대전광역시 유성구 덕명동 588,36.34555074,127.2905091,대전광역시 유성구
수통골 공영주차장,노외,"대전광역시 유성구 수통골로 37, (계산동)",대전광역시 유성구 계산동 354,36.3453223779,127.2905214075,대전광역시 유성구
학하지구 공영(2),노외,,대전광역시 유성구 복용동 604-1,36.34186328,127.3072079,대전광역시 유성구
학하지구 공영(3),노외,,대전광역시 유성구 학하동 714-9,36.34039779,127.3062628,대전광역시 유성구
학하지구 공영(4),노외,,대전광역시 유성구 학하동 721-1,36.3476987,127.2971296,대전광역시 유성구
학하지구 공영(5),노외,,대전광역시 유성구 덕명동 595,36.33735965,127.2999069,대전광역시 유성구
학하지구 공영(6),노외,,대전광역시 유성구 계산동 758-7,36.33899859,127.3105528,대전광역시 유성구
학하지구 공영(7),노외,,대전광역시 유성구 학하동 747-1,36.33723226,127.312139,대전광역시 유성구
학하지구 공영(8),노외,,대전광역시 유성구 학하동 778-2,36.33876051,127.3067786,대전광역시 유성구
학하지구 공영(9),노외,,대전광역시 유성구 학하동 731-1,36.34108979,127.3090417,대전광역시 유성구
학하지구 공영(10),노외,,대전광역시 유성구 학하동 716-6,36.33962431,127.3080966,대전광역시 유성구
학하지구 공영(11),노외,,대전광역시 유성구 학하동 721-12,36.34268059,127.2989793,대전광역시 유성구
대전동부지사주차장,노상,대전광역시 중구 대흥로10번길 41,대전광역시 중구 대사동 248-377,36.319929,127.417046,한국국토정보공사
대전서부지사주차장,노상,대전광역시 서구 문정로48번길 12,대전광역시 서구 탄방동 653,36.346134,127.384264,한국국토정보공사
대전충남지역본부주차장,노상,대전광역시 서구 문정로48번길 12,대전광역시 서구 탄방동 653,36.346134,127.384264,한국국토정보공사
사업단주차장,노상,대전광역시 서구 문정로48번길 12,대전광역시 서구 탄방동 653,36.346134,127.384264,한국국토정보공사
학하지구 공영(12),노외,,대전광역시 유성구 계산동 717-3,36.3433155,127.3121079,대전광역시 유성구
학하지구 공영(13),노외,,대전광역시 유성구 복용동 585-1,36.34380896,127.310154,대전광역시 유성구
학하지구 공영(14),노외,,대전광역시 유성구 복용동 569-1,36.36342327,127.3281557,대전광역시 유성구
유성IC만남의광장,노외,"대전광역시 유성구 월드컵대로 31, (장대동)",대전광역시 유성구 장대동 240-43,36.3634198924,127.3281519313,대전광역시 유성구
반석동 제2공영,노외,,대전광역시 유성구 반석동 714,36.41221825,127.376797,대전광역시 유성구
설목마을 공영,노외,"대전광역시 유성구 대덕대로925번길 24, (화암동)",대전광역시 유성구 화암동 155-37,36.4122220578,127.3767955107,대전광역시 유성구
문창동제2노상,노상,대전광역시 중구 대종로386번길 71,대전광역시 중구 문창동 53-33,36.32156075,127.4341062,대전광역시 중구
문창동제3노상,노상,대전광역시 중구 대전천서로 269,대전광역시 중구 문창동 367-29,36.31482503,127.4387359,대전광역시 중구
문창동제4노상,노상,대전광역시 중구 문창로 30,대전광역시 중구 문창동 107-11,36.31674597,127.4354095,대전광역시 중구
문창동제5노상,노상,대전광역시 중구 보문로 30번길 7,대전광역시 중구 문창동 361-2,36.31444362,127.4373166,대전광역시 중구
문창동제6노상,노상,대전광역시 중구 대종로296번길 40,대전광역시 중구 문창동 381-1,36.31353717,127.4377474,대전광역시 중구
문창동제7노상,노상,대전광역시 중구 대종로334번길 40,대전광역시 중구 문창동 123-23,36.31618537,127.435948,대전광역시 중구
문창동제8노상,노상,대전광역시 중구 보문로20번길 38,대전광역시 중구 문창동 116-15,36.31620835,127.437921,대전광역시 중구
문화1동제5노상,노상,대전광역시 중구 과례로67번길 24,대전광역시 중구 문화동 263-9,36.31402901,127.4116531,대전광역시 중구
문화1동제7노상,노상,대전광역시 중구 과례로 82,대전광역시 중구 문화동 12-7,36.31446813,127.4142413,대전광역시 중구
문화1동제8노상,노상,대전광역시 중구 과례로22번길 30,대전광역시 중구 문화동 147-4,36.30939039,127.4103359,대전광역시 중구
문화1동제9노상,노상,대전광역시 중구 천근로69번길 114,대전광역시 중구 문화동 418-1,36.3130288,127.4056914,대전광역시 중구
문화1동제10노상,노상,대전광역시 중구 계백로1660번길 82-3,대전광역시 중구 문화동 354-14,36.31625932,127.4055676,대전광역시 중구
문화1동제11노상,노상,대전광역시 중구 계백로1658번길 79-2,대전광역시 중구 문화동 339-37,36.31653307,127.4043535,대전광역시 중구
문화1동제12노상,노상,대전광역시 중구 계백로 1686번길 51,대전광역시 중구 문화동 1-48,36.31946021,127.407981,대전광역시 중구
문화2동제1노상,노상,대전광역시 중구 문화로 153,대전광역시 중구 유천동 141-20,36.3138967,127.4022589,대전광역시 중구
문화2동제2노상,노상,대전광역시 중구 당디로36번길 113,대전광역시 중구 문화동 671-10,36.3108995,127.399076,대전광역시 중구
문화2동제3노상,노상,대전광역시 중구 문화로 170,대전광역시 중구 문화동 374-16,36.31407452,127.404205,대전광역시 중구
문화2동제4노상,노상,대전광역시 중구 천근로 22,대전광역시 중구 문화동 475-1,36.30967208,127.4022519,대전광역시 중구
문화2동제5노상,노상,대전광역시 중구 보문산로215번길 43,대전광역시 중구 문화동 493-1,36.3078604,127.4039467,대전광역시 중구
부사동제1노상,노상,대전광역시 중구 충무로 139,대전광역시 중구 부사동 87-14,36.31981529,127.4317576,대전광역시 중구
부사동제2노상,노상,대전광역시 중구 대종로 373,대전광역시 중구 부사동 209-1,36.317337,127.4280138,대전광역시 중구
대사동제2노상,노상,대전광역시 중구 보문로125번길 13,대전광역시 중구 대사동 172,36.31384778,127.4273945,대전광역시 중구
대사동제1노상,노상,대전광역시 중구 계룡로929번길 40,대전광역시 중구 대사동 248-219,36.3203416,127.4174708,대전광역시 중구
대사동제3노상,노상,대전광역시 중구 보문로 146,대전광역시 중구 대사동 95-16,36.31672534,127.4268123,대전광역시 중구
대사동제4노상,노상,대전광역시 중구 보문로 162번길 40,대전광역시 중구 대사동 77-70,36.31840289,127.4277929,대전광역시 중구
대흥동제4노상,노상,대전광역시 중구 중앙로 112,대전광역시 중구 대흥동 496-1,36.32670915,127.422546,대전광역시 중구
대흥동제5노상,노상,대전광역시 중구 보문로230번길 21,대전광역시 중구 대흥동 452-96,36.32364497,127.4239688,대전광역시 중구
대흥동제9노상,노상,대전광역시 중구 대흥로 178,대전광역시 중구 대흥동 104-5,36.32515636,127.4316426,대전광역시 중구
대흥동제10노상,노상,대전광역시 중구 중앙로 100,대전광역시 중구 대흥동 499-1,36.32557502,127.4212953,대전광역시 중구
문창동제1노상,노상,대전광역시 중구 대종로334번길 12,대전광역시 중구 부사동 126-2,36.31559562,127.4344674,대전광역시 중구
문화2동제1노상,노상,대전광역시 중구 문화로 153,대전광역시 중구 문화동 141-20,,,대전광역시
문화1동제8노상,노상,대전광역시 중구 문화로163번길 9,대전광역시 중구 문화동 375-5,,,대전광역시
문화1동제9노상,노상,대전광역시 중구 천근로69번길 114,대전광역시 중구 문화동 418-1,,,대전광역시
문화1동제10노상,노상,대전광역시 중구 계백로1660번길 82-3,대전광역시 중구 문화동 354-14,,,대전광역시
문화1동제11노상,노상,대전광역시 중구 계백로1658번길 79-2,대전광역시 중구 문화동 339-37,,,대전광역시
문화1동제12노상,노상,대전광역시 중구 계백로 1686번길 51,대전광역시 중구 문화동 1-48,,,대전광역시
문창동제5노상,노상,대전광역시 중구 보문로 30번길 7,대전광역시 중구 문창동 361-2,,,대전광역시
문창동제6노상,노상,대전광역시 중구 남부시장5길,대전광역시 중구 문창동 381,,,대전광역시
문창동제7노상,노상,대전광역시 중구 대종로334번길 40,대전광역시 중구 문창동 123-23,,,대전광역시
문창동제8노상,노상,대전광역시 중구 보문로20번길 38,대전광역시 중구 문창동 116-15,,,대전광역시
문화1동제5노상,노상,대전광역시 중구 과례로67번길 24,대전광역시 중구 문화동 263-9,,,대전광역시
문화1동제7노상,노상,대전광역시 중구 과례로 82,대전광역시 중구 문화동 12-7,,,대전광역시
문창동제3노상,노상,대전광역시 중구 대전천서로 269,대전광역시 중구 문창동 367-29,,,대전광역시
문창동제4노상,노상,대전광역시 중구 문창로 30,대전광역시 중구 문창동 107-11,,,대전광역시
학하지구 공영(11),노외,대전광역시 유성구 학하동 721-12,대전광역시 유성구 학하동 721-12,,,대전광역시
학하지구 공영(12),노외,대전광역시 유성구 계산동 717-3,대전광역시 유성구 계산동 717-3,,,대전광역시
학하지구 공영(13),노외,대전광역시 유성구 복용동 585-1,대전광역시 유성구 복용동 585-1,,,대전광역시
학하지구 공영(14),노외,대전광역시 유성구 복용동 569-1,대전광역시 유성구 복용동 569-1,,,대전광역시
대사동제2노상,노상,대전광역시 중구 보문로125번길 13,대전광역시 중구 대사동 172,,,대전광역시
대사동제1노상,노상,대전광역시 중구 계룡로929번길 40,대전광역시 중구 대사동 248-219,,,대전광역시
대사동제3노상,노상,대전광역시 중구 보문로 146,대전광역시 중구 대사동 95-16,,,대전광역시
대사동제4노상,노상,대전광역시 중구 보문로 162번길 40,대전광역시 중구 대사동 77-39,,,대전광역시
대흥동제4노상,노상,대전광역시 중구 중앙로 112,대전광역시 중구 대흥동 496-1,,,대전광역시
대흥동제5노상,노상,대전광역시 중구 보문로230번길 21,대전광역시 중구 대흥동452-96,,,대전광역시
대흥동제9노상,노상,대전광역시 중구 대흥로 174,대전광역시 중구 대흥동 114-1,,,대전광역시
대흥동제10노상,노상,대전광역시 중구 중앙로 100,대전광역시 중구 대흥동 499-1,,,대전광역시
문창동제1노상,노상,대전광역시 중구 대종로334번길 12,대전광역시 중구 부사동 126-2,,,대전광역시
문창동제2노상,노상,대전광역시 중구 대종로386번길 71,대전광역시 중구 문창동 53-33,,,대전광역시
부사동제3노상,노상,대전광역시 중구 사득로75번길 23,대전광역시 중구 부사동 166-1,36.31074589,127.4370255,대전광역시 중구
학하지구 공영(8),노외,대전광역시 유성구 학하동 778-2,대전광역시 유성구 학하동 778-2,,,대전광역시
학하지구 공영(9),노외,대전광역시 유성구 학하동 731-1,대전광역시 유성구 학하동 731-1,,,대전광역시
학하지구 공영(10),노외,대전광역시 유성구 학하동 716-6,대전광역시 유성구 학하동 716-6,,,대전광역시
학하지구 공영(6),노외,대전광역시 유성구 계산동 758-7,대전광역시 유성구 계산동 758-7,,,대전광역시
학하지구 공영(2),노외,대전광역시 유성구 복용동 604-1,대전광역시 유성구 복용동 604-1,,,대전광역시
학하지구 공영(3),노외,대전광역시 유성구 학하동 714-9,대전광역시 유성구 학하동 714-9,,,대전광역시
학하지구 공영(4),노외,대전광역시 유성구 학하동 721-1,대전광역시 유성구 학하동 721-1,,,대전광역시
학하지구 공영(5),노외,대전광역시 유성구 덕명동 595,대전광역시 유성구 덕명동 595,,,대전광역시
학하지구 공영(7),노외,대전광역시 유성구 학하동 747-1,대전광역시 유성구 학하동 747-1,,,대전광역시
교촌동공영,노외,대전광역시 유성구 진잠로 64-27 (교촌동),대전광역시 유성구 교촌동 636-1,,,대전광역시
원내동공영,노외,대전광역시 유성구 원내로 5(원내동),대전광역시 유성구 원내동 213-5~6,,,대전광역시
원내동공영,노외,대전광역시 유성구 진잠로66번길 45,대전광역시 유성구 원내동 341-6,,,대전광역시
학하지구 공영,노외,대전광역시 유성구 덕명동 588,대전광역시 유성구 덕명동 588,,,대전광역시
수통골 공영주차장,노외,대전광역시 유성구 계산동 354,대전광역시 유성구 계산동 354,,,대전광역시
세동 공영주차장,노외,대전광역시 유성구 세동 136,대전광역시 유성구 세동 136,,,대전광역시
덕명지구 공영(3),노외,대전광역시 유성구 구암동 677,대전광역시 유성구 구암동 677,,,대전광역시
덕명지구 공영(4),노외,대전광역시 유성구 덕명동 544,대전광역시 유성구 덕명동 544,,,대전광역시
덕명지구 공영(5),노외,대전광역시 유성구 덕명동 545,대전광역시 유성구 덕명동 545,,,대전광역시
덕명지구 공영(6),노외,대전광역시 유성구 덕명동 530,대전광역시 유성구 덕명동 530,,,대전광역시
장대동 공영,노외,대전광역시 유성구 유성대로729번길 40,대전광역시 유성구 장대동 263-2,,,대전광역시
궁동공영,노외,대전광역시 유성구 대학로163번길 18,대전광역시 유성구 궁동 428-2,,,대전광역시
전민동주민센터공영,노외,대전광역시 유성구 유성대로 1709(전민동),대전광역시 유성구 전민동 300-4,,,대전광역시
전민동 제1공영,노외,대전광역시 유성구 전민로 18번길(전민동),대전광역시 유성구 전민동 332-4,,,대전광역시
전민동 제2공영,노외,대전광역시 유성구 전민로 68(전민동),대전광역시 유성구 전민동 346-3,,,대전광역시
대사동제4노외,노외,대전광역시 중구 솔밭로30번길 16 인근,대전광역시 중구 대사동 233-38,,,대전광역시
대사동제5노외,노외,대전광역시 중구 솔밭로30번길 17 인근,대전광역시 중구 대사동 233-191,,,대전광역시
선화동제4노외,노외,대전광역시 중구 선화서로19번길 48 인근,대전광역시 중구 선화동 381-108번지일원,,,대전광역시
문화동제8노외,노외,대전광역시 중구 보문산로171번길 34,대전광역시 중구 문화동 571-14,,,대전광역시
월평1동이마트주변,노상,대전광역시 서구 한밭대로580,대전광역시 서구 월평동510,,,대전광역시
월평2동둔산선사유적지옆,노상,대전광역시 서구 대덕대로317번길9,대전광역시 서구 월평동281,,,대전광역시
대전일보~월평타운구간,노상,대전광역시 서구 계룡로264번길43,대전광역시 서구 월평1동29-3,,,대전광역시
사정동제3노상,노상,대전광역시 중구 산서로71번길,대전광역시 중구 사정동 350-1,,,대전광역시
산성동제11노상,노상,대전광역시 중구 문화로78번길5,대전광역시 중구 산성동 104-42,,,대전광역시
산성동제12노상,노상,대전광역시 중구 유등천동로292번길69,대전광역시 중구 산성동 161-4,,,대전광역시
안영동제2노상,노상,대전광역시 중구 대둔산로 200번길,대전광역시 중구 안영동 687-2,,,대전광역시
대흥동제11노상,노상,대전광역시 중구 수도산로47번길,대전광역시 중구 대흥동 172-4,,,대전광역시
동서로(70m),노상,대전광역시 중구 동서대로1235번길 4,대전광역시 중구 태평동 335-14,,,대전광역시
평촌로(350m),노상,대전광역시 중구 평촌로 84,대전광역시 중구 유천동 196,,,대전광역시
유천로(850m),노상,대전광역시 중구 계백로 1600,대전광역시 중구 유천동 185-1,,,대전광역시
선화동제1노상,노상,대전광역시 중구 선화로 119번길 16-3,대전광역시 중구 선화동 139,,,대전광역시
선화동제2노상,노상,대전광역시 중구 선화로 126-10,대전광역시 중구 선화동 243-1,,,대전광역시
선화동제3노상,노상,대전광역시 중구 중앙로 79번길,대전광역시 중구 선화동 287-2,,,대전광역시
문화1동제1노상,노상,대전광역시 중구 중앙로16번길 5,대전광역시 중구 문화동 1-21,,,대전광역시
문화1동제2노상,노상,대전광역시 중구 계룡로 904번길 30,대전광역시 중구 문화동 1-39,,,대전광역시
문화1동제3노상,노상,대전광역시 중구 계룡로 910,대전광역시 중구 문화동 1-30,,,대전광역시
대흥동제1노상,노상,대전광역시 중구 보문로 230번길 69,대전광역시 중구 대흥동 418-1,,,대전광역시
문화1동제6노상,노상,대전광역시 중구 과례로 66,대전광역시 중구 문화동 19-1,,,대전광역시
산성동 원당디1길,노상,대전광역시 중구 유등천동로 298-11,대전광역시 중구 산성동 168-8,,,대전광역시
석교동 아래돌다리11길,노상,대전광역시 중구 대종로224번길 28,대전광역시 중구 석교동 58-11,,,대전광역시
석교동제2노외,노외,대전광역시 중구 보문로47번길 144,"대전광역시 중구 석교동12-10, 12",,,대전광역시
대사동제3노외,노외,대전광역시 중구 보문산공원로 497번길 72,대전광역시 중구 대사동 142-14,,,대전광역시
유천1동제4노상,노상,대전광역시 중구 계백로 1565번길 11,대전광역시 중구 유천동 307-1,,,대전광역시
석교동제4노상,노상,대전광역시 중구 돌다리로8번길 57,대전광역시 중구 석교동 6-6,,,대전광역시
부사동제6노상,노상,대전광역시 중구 보문로63번길 28,대전광역시 중구 부사동 300-8,36.31198026,127.4328328,대전광역시 중구
부사동제4노상,노상,대전광역시 중구 충무로92번길 48,대전광역시 중구 부사동 209-72,36.3156536,127.428417,대전광역시 중구
부사동제5노상,노상,대전광역시 중구 사득로67번길 23,대전광역시 중구 부사동 364-67,36.31014369,127.4365663,대전광역시 중구
사정동제1노상,노상,대전광역시 중구 대둔산로 350번길 6,대전광역시 중구 사정동 439-14,36.30011182,127.3864591,대전광역시 중구
사정동제2노상,노상,대전광역시 중구 대둔산로 326번길 23,대전광역시 중구 사정동 431-1,36.29850744,127.3860409,대전광역시 중구
산성동제1노상,노상,대전광역시 중구 당디로 45,대전광역시 중구 산성동 37-1,36.30853607,127.3926533,대전광역시 중구
산성동제2노상,노상,대전광역시 중구 대둔산로466번길 17,대전광역시 중구 산성동 145-40,36.31089095,127.3893707,대전광역시 중구
산성동제3노상,노상,대전광역시 중구 보문산로 31,대전광역시 중구 산성동 78-5,36.30673286,127.3848196,대전광역시 중구
산성동제4노상,노상,대전광역시 중구 대둔산로480번길 41,대전광역시 중구 산성동 136-95,36.31239267,127.3911974,대전광역시 중구
산성동제5노상,노상,대전광역시 중구 유등천동로 292번길 89-14,대전광역시 중구 산성동 36-1,36.30867591,127.3908175,대전광역시 중구
반석동공영,노외,대전광역시 유성구 북유성대로 303(반석동),대전광역시 유성구 반석동 641,,,대전광역시
도룡동공영(上),노외,대전광역시 유성구 대덕대로 606(도룡동),대전광역시 유성구 도룡동 385-1,,,대전광역시
도룡동공영(下),노외,대전광역시 유성구 대덕대로578번길 27(도룡동),대전광역시 유성구 도룡동 395-10,,,대전광역시
신성동 제1공영,노외,대전광역시 유성구 신성로 82(신성동),대전광역시 유성구 신성동 137-2외4필지,,,대전광역시
신성동 제2공영,노외,대전광역시 유성구 신성로62번길 9(신성동),대전광역시 유성구 신성동 211-2외7필지,,,대전광역시
덕명지구 공영(1),노외,대전광역시 유성구 덕명동 544,대전광역시 유성구 덕명동 544,,,대전광역시
덕명지구 공영(2),노외,대전광역시 유성구 구암동 657,대전광역시 유성구 구암동 657,,,대전광역시
원내동 중앙장로교회 앞,노상,대전광역시 유성구 진잠로 102번길,대전광역시 유성구 원내동 92-3~10,,,대전광역시
죽동장애인복지관~북대전세무서,노상,대전광역시 유성구 북유성대로 166~188,대전광역시 유성구 죽동 600~죽동 597-1,,,대전광역시
수통골 공영주차장 입구 주변,노상,대전광역시 유성구 수통골로,대전광역시 유성구 계산동 352-8,,,대전광역시
관평동1공영,노외,대전광역시 유성구 관평1로 79(관평동),대전광역시 유성구 관평동 1175,,,대전광역시
관평동2공영,노외,대전광역시 유성구 테크노4로 57(관평동),대전광역시 유성구 관평동 734,,,대전광역시
관평동3공영,노외,대전광역시 유성구 테크노중앙로 55(관평동),대전광역시 유성구 관평동 788,,,대전광역시
관평동4공영,노외,대전광역시 유성구 테크노4로 107(관평동),대전광역시 유성구 관평동 932,,,대전광역시
관평동5공영,노외,대전광역시 유성구 관평1로 57(관평동),대전광역시 유성구 관평동 1052,,,대전광역시
용산동공영,노외,대전광역시 유성구 테크노중앙로 124(용산동),대전광역시 유성구 용산동 624,,,대전광역시
송강동(프라자옆)공영,노외,대전광역시 유성구 봉산로 27(송강동),대전광역시 유성구 송강동 16-1,,,대전광역시
송강동(굿모닝마트앞)공영,노외,대전광역시 유성구 구즉로58번길 31-11(송강동),대전광역시 유성구 송강동 36-2,,,대전광역시
봉산동공영,노외,대전광역시 유성구 구룡달전로 7-15(봉산동),대전광역시 유성구 봉산동 299,,,대전광역시
죽동공영,노외,대전광역시 유성구 북유성대로 172(죽동),대전광역시 유성구 죽동 598,,,대전광역시
유성구청 뒤,노상,대전광역시 유성구 대학로 211 (어은동),대전광역시 유성구 어은동 109,,,대전광역시
전민동 458-13일원,노상,대전광역시 유성구 전민로 26-1 (전민동),대전광역시 유성구 전민동 458-13일원,,,대전광역시
엑스포코아 앞,노상,대전광역시 유성구 엑스포로 488 (전민동),대전광역시 유성구 전민동 466-3,,,대전광역시
도룡동 우성(아)앞,노상,대전광역시 유성구 문지로22(도룡동),대전광역시 유성구 도룡동 401-3일원,,,대전광역시
신성동 한울(아)옆,노상,대전광역시 유성구 대덕대로541번길 87(도룡동),대전광역시 유성구 신성동 106 주변,,,대전광역시
숯골원냉면 주변,노상,"대전광역시 유성구 신성로84번길 18-1 (신성동, 대원빌라)",대전광역시 유성구 신성동 136-4일원,,,대전광역시
신성동 첨단주유소~신성삼거리,노상,"대전광역시 유성구 가정로 43 (신성동, 삼성한울아파트)",대전광역시 유성구 신성동 160-1일원(시간제주차),,,대전광역시
럭키하나아파트 주변,노상,대전광역시 유성구 신성남로 27 (신성동),대전광역시 유성구 신성동 206일원,,,대전광역시
신성동애경기술원전면,노상,대전광역시 유성구 신성남로 120 (신성동),대전광역시 유성구 신성동 217-2일원,,,대전광역시
주막공원~숯골길,노상,대전광역시 유성구 신성로62번길 9(신성동),대전광역시 유성구 신성동 466,,,대전광역시
도덕봉가든일원,노상,대전광역시 유성구 동서대로 189번길,대전광역시 유성구 덕명동 171-96번지 일원,,,대전광역시
요한이네할인매장 맞은편~유진아이티 맞은편,노상,대전광역시 유성구 노은서로 6,대전광역시 유성구 노은동 562-9 일원,,,대전광역시
강남동태찜~청명공인중개사 맞은편,노상,대전광역시 유성구 은구비로 2,대전광역시 유성구 지족동 884-1 일원,,,대전광역시
대전원예농협~대신수산,노상,대전광역시 유성구 노은동 8,대전광역시 유성구 노은동 567-3 일원,,,대전광역시
유성경찰서~죽동 622,노상,대전광역시 유성구 북유성대로 112,대전광역시 유성구 죽동 622~629,,,대전광역시
태평2동거주자우선주차장,노상,대전광역시 중구 동서대로1207번길 53,대전광역시 중구 태평동 368번지 일원,,,대전광역시
태평동 강변4안길,노상,대전광역시 중구 유등천동로 554,대전광역시 중구 태평동 364-8번지 일원,,,대전광역시
호동제1노상,노상,대전광역시 중구 대종로171번길 49,대전광역시 중구 호동 247-2,,,대전광역시
호동제2노상,노상,대전광역시 중구 모암로 13,대전광역시 중구 호동 23-1,,,대전광역시
호동제3노상,노상,대전광역시 중구 모암로14번길 36,대전광역시 중구 호동 17-9,,,대전광역시
충무로(650m),노상,대전광역시 중구 보문로 160,대전광역시 중구 대사동 97-16,,,대전광역시
선화동제4노상,노상,대전광역시 중구 중앙로 119,대전광역시 중구 선화동 226,,,대전광역시
오류동제2노상,노상,대전광역시 중구 계룡로 852,대전광역시 중구 오류동 175-1,,,대전광역시
오류동제3노상,노상,대전광역시 중구 계룡로 852,대전광역시 중구 오류동 175-1,,,대전광역시
오류동제4노상,노상,대전광역시 중구 계룡로 852,대전광역시 중구 오류동 175-1,,,대전광역시
대흥로(360m),노상,대전광역시 중구 대흥로 69,대전광역시 중구 대흥동 508-14,,,대전광역시
충무로(650m),노상,대전광역시 중구 충무로 139,대전광역시 중구 부사동 87-14,,,대전광역시
궁동 457-1일원,노상,대전광역시 유성구 문화원로37번길 36 (궁동),대전광역시 유성구 궁동 457-3일원,,,대전광역시
은행동제2노상,노상,대전광역시 중구 대종로 528,대전광역시 중구 은행동 24-8,,,대전광역시
중촌동제1노상,노상,대전광역시 중구 목중로26번길 29,대전광역시 중구 중촌동 16-1(현대@111106동),,,대전광역시
중촌동제2노상,노상,대전광역시 중구 목중로 50,대전광역시 중구 중촌동 16-10,,,대전광역시
중촌동제3노상,노상,대전광역시 중구 동서대로1421번길 30,대전광역시 중구 중촌동 405-3,,,대전광역시
중촌동제4노상,노상,대전광역시 중구 대전천서로 616,대전광역시 중구 중촌동 382-1,,,대전광역시
중촌동제5노상,노상,대전광역시 중구 대종로 634,대전광역시 중구 중촌동 14-1,,,대전광역시
중촌동제6노상,노상,대전광역시 중구 대종로 634,대전광역시 중구 중촌동 14-1,,,대전광역시
중촌동제7노상,노상,대전광역시 중구 대종로 661,대전광역시 중구 중촌동 102-1,,,대전광역시
중촌동제8노상,노상,대전광역시 중구 어덕마을로 160-10,대전광역시 중구 중촌동 25-7 일원,,,대전광역시
중촌동제9노상,노상,대전광역시 중구 목중로26번길 29,대전광역시 중구 중촌동 16-1 (현대@112113동),,,대전광역시
태평1동제1노상,노상,대전광역시 중구 수침로 54-3,대전광역시 중구 태평동 278-14,,,대전광역시
태평1동제2노상,노상,대전광역시 중구 수침로 54-22,대전광역시 중구 태평동 281-12,,,대전광역시
태평1동제3노상,노상,대전광역시 중구 계백로1653번길 133,대전광역시 중구 태평동 278-1,,,대전광역시
태평1동제4노상,노상,대전광역시 중구 동서대로 1272,대전광역시 중구 태평동 262-47,,,대전광역시
태평1동제5노상,노상,대전광역시 중구 동서대로1273번길 31,대전광역시 중구 태평동 255-6,,,대전광역시
태평1동제6노상,노상,대전광역시 중구 수침로 138,대전광역시 중구 태평동 253-1,,,대전광역시
태평2동제1노상,노상,대전광역시 중구 태평로 143,대전광역시 중구 태평동 365-4,,,대전광역시
태평2동제2노상,노상,대전광역시 중구 유등천동로 500,대전광역시 중구 태평동 414-22,,,대전광역시
용두동 제5노상,노상,대전광역시 중구 계룡로737번길 27,대전광역시 중구 용두동 160-1,,,대전광역시
유천1동제1노상,노상,대전광역시 중구 계백로1584번길 114,대전광역시 중구 유천동 272-36,,,대전광역시
유천1동제2노상,노상,대전광역시 중구 계백로1566번길 57,대전광역시 중구 유천동 297-21,,,대전광역시
유천1동 제3노상,노상,대전광역시 중구 당디로 112,대전광역시 중구 유천동 332-28,,,대전광역시
유천2동제1노상,노상,대전광역시 중구 문화로 149,대전광역시 중구 유천동 142-14,,,대전광역시
유천2동제3노상,노상,대전광역시 중구 유천로18번길 68,대전광역시 중구 유천동 141-1,,,대전광역시
유천2동제4노상,노상,대전광역시 중구 유천로34번길 78,대전광역시 중구 유천동 137-1,,,대전광역시
유천2동제5노상,노상,대전광역시 중구 계백로1566번길 57,대전광역시 중구 유천동 297-21,,,대전광역시
유천2동제6노상,노상,대전광역시 중구 문화로105번길 30,대전광역시 중구 유천동 272-1,,,대전광역시
유천2동제7노상,노상,대전광역시 중구 유천로102번길 36,대전광역시 중구 유천동 200번지 일원,,,대전광역시
유천2동제8노상,노상,대전광역시 중구 유천로32,대전광역시 중구 유천동 171번지 일원,,,대전광역시
대사동제6노상,노상,,대전광역시 중구 대사동 147-2,36.3148855,127.424512,대전광역시 중구
대흥동제12노상,노상,,대전광역시 중구 대흥동 106-49,36.319398,127.428253,대전광역시 중구
호동제4노상,노상,,대전광역시 중구 호동 137-2,36.298998,127.441169,대전광역시 중구
대흥동제6노외,노외,대전광역시 중구 테미로 20-7,대전광역시 중구 대흥동 326-34,36.31997162,127.4205669,대전광역시 중구
대사동제1노외,노외,대전광역시 중구 보문산공원로497번안길 26,대전광역시 중구 대사동 197,36.31139953,127.4199756,대전광역시 중구
대사동제2노외,노외,대전광역시 중구 보문산공원로497번길 81-7,대전광역시 중구 대사동 197-6,36.31047717,127.4195651,대전광역시 중구
용두동제1노외,노외,대전광역시 중구 용두로 17-2,대전광역시 중구 용두동 31-1,36.32616718,127.409629,대전광역시 중구
유천2동제2시간제,노상,대전광역시 중구 계백로 1600,대전광역시 중구 유천동 185-1,36.31822927,127.3978785,대전광역시 중구
선화동제1노상,노상,대전광역시 중구 선화로 119번길 16-3,대전광역시 중구 선화동 139,36.33106318,127.4200678,대전광역시 중구
선화동제2노상,노상,대전광역시 중구 선화로 126-10,대전광역시 중구 선화동 243-1,36.33033724,127.4210001,대전광역시 중구
선화동제3노상,노상,대전광역시 중구 중앙로 101,대전광역시 중구 선화동 287-2,36.32677115,127.4207316,대전광역시 중구
문화1동제1노상,노상,대전광역시 중구 중앙로16번길 5,대전광역시 중구 문화동 1-21,36.32253927,127.4146817,대전광역시 중구
문화1동제2노상,노상,대전광역시 중구 계룡로 904번길 30,대전광역시 중구 문화동 1-39,36.32092858,127.4119235,대전광역시 중구
문화1동제3노상,노상,대전광역시 중구 계룡로 910,대전광역시 중구 문화동 1-30,36.32109597,127.4135315,대전광역시 중구
대흥동제1노상,노상,대전광역시 중구 보문로 230번길 69,대전광역시 중구 대흥동 418-1,36.32525301,127.4255734,대전광역시 중구
문화1동제6노상,노상,대전광역시 중구 과례로 66,대전광역시 중구 문화동 19-1,36.31374695,127.4134246,대전광역시 중구
산성동제14노상,노상,대전광역시 중구 유등천동로 298-11,대전광역시 중구 산성동 168-8,36.3084665,127.3856466,대전광역시 중구
석교동제5노상,노상,대전광역시 중구 대종로224번길 28,대전광역시 중구 석교동 58-11,36.30976768,127.4432856,대전광역시 중구
유천1동제4노상,노상,대전광역시 중구 계백로 1565번길 11,대전광역시 중구 유천동 307-1,36.31809379,127.3934231,대전광역시 중구
석교동제4노상,노상,대전광역시 중구 돌다리로8번길 57,대전광역시 중구 석교동 6-6,36.30996836,127.4395552,대전광역시 중구
사정동제3노상,노상,대전광역시 중구 산서로71번길 16,대전광역시 중구 사정동 350-1,36.29663206,127.3904884,대전광역시 중구
산성동제11노상,노상,대전광역시 중구 문화로78번길5,대전광역시 중구 산성동 104-42,36.31119411,127.394592,대전광역시 중구
산성동제12노상,노상,대전광역시 중구 유등천동로292번길 69,대전광역시 중구 산성동 161-4,36.30794957,127.3889332,대전광역시 중구
안영동제2노상,노상,대전광역시 중구 대둔산로200번길 38,대전광역시 중구 안영동 687-2,36.28739026,127.3814071,대전광역시 중구
대흥동제11노상,노상,대전광역시 중구 수도산로47번길 48,대전광역시 중구 대흥동 172-4,36.32350212,127.4281443,대전광역시 중구
은행동제3노상,노상,대전광역시 중구 중앙로 157-2,대전광역시 중구 은행동 330,36.32928165,127.4272111,대전광역시 중구
대사동제5노상,노상,,대전광역시 중구 대사동 122-2,36.3153616,127.424938,대전광역시 중구
용두동제3노상,노상,대전광역시 중구 동서대로1327번길 46,대전광역시 중구 용두동 141-11,,,대전광역시
용두동 제4노상,노상,대전광역시 중구 계룡로737번길 27,대전광역시 중구 용두동 160-1,,,대전광역시
태평1동제3노상,노상,대전광역시 중구 계백로1653번길 133,대전광역시 중구 태평동 278-1,36.32570773,127.4016161,대전광역시 중구
태평1동제5노상,노상,대전광역시 중구 동서대로1273번길 31,대전광역시 중구 태평동 255-6,36.32896935,127.4004663,대전광역시 중구
태평1동제6노상,노상,대전광역시 중구 수침로 138,대전광역시 중구 태평동 253-1,36.33232854,127.3981832,대전광역시 중구
태평2동제1노상,노상,대전광역시 중구 태평로 143,대전광역시 중구 태평동 365-4,36.32938362,127.3962203,대전광역시 중구
태평2동제2노상,노상,대전광역시 중구 유등천동로 500,대전광역시 중구 태평동 414-22,36.3256533,127.3903261,대전광역시 중구
태평2동제3노상,노상,대전광역시 중구 동서대로1207번길 53,대전광역시 중구 태평동 368,36.3285686,127.3949125,대전광역시 중구
태평2동제4노상,노상,대전광역시 중구 유등천동로 554,대전광역시 중구 태평동 364-8,36.32958603,127.3937095,대전광역시 중구
호동제1노상,노상,,대전광역시 중구 호동 351-6,36.30555021,127.4454008,대전광역시 중구
호동제2노상,노상,대전광역시 중구 모암로 13,대전광역시 중구 호동 23-1,36.30307095,127.449074,대전광역시 중구
호동제3노상,노상,대전광역시 중구 모암로14번길 36,대전광역시 중구 호동 17-9,36.30474742,127.4479673,대전광역시 중구
대사동시간제,노상,대전광역시 중구 보문로 160,대전광역시 중구 대사동 97-16,36.31753418,127.4262992,대전광역시 중구
선화동제4노상,노상,대전광역시 중구 중앙로 119,대전광역시 중구 선화동 226,36.32794622,127.4228704,대전광역시 중구
오류동제2노상,노상,대전광역시 중구 계룡로 852,대전광역시 중구 오류동 175-1,36.32526739,127.406635,대전광역시 중구
오류동제3노상,노상,대전광역시 중구 계룡로 852,대전광역시 중구 오류동 175-1,36.32526739,127.406635,대전광역시 중구
오류동제4노상,노상,대전광역시 중구 계룡로 852,대전광역시 중구 오류동 175-1,36.32526739,127.406635,대전광역시 중구
대흥동시간제,노상,대전광역시 중구 대흥로 69,대전광역시 중구 대흥동 508-14,36.32394828,127.4208398,대전광역시 중구
부사동시간제,노상,대전광역시 중구 충무로 139,대전광역시 중구 부사동 87-14,36.31981529,127.4317576,대전광역시 중구
태평동시간제,노상,대전광역시 중구 동서대로1235번길 4,대전광역시 중구 태평동 335-14,36.32669184,127.3972404,대전광역시 중구
유천2동제1시간제,노상,대전광역시 중구 평촌로 84,대전광역시 중구 유천동 196,36.32190918,127.3966211,대전광역시 중구
용두동 제4노상,노상,대전광역시 중구 계룡로737번길 27,대전광역시 중구 용두동 160-1,36.33363551,127.4013659,대전광역시 중구
용두동 제5노상,노상,대전광역시 중구 계룡로737번길 27,대전광역시 중구 용두동 160-1,36.33363551,127.4013659,대전광역시 중구
유천1동제2노상,노상,대전광역시 중구 계백로1566번길 57,대전광역시 중구 유천동 297-21,36.31501653,127.3953088,대전광역시 중구
유천1동제3노상,노상,대전광역시 중구 당디로 107,대전광역시 중구 유천동 335-23,36.31437729,127.3912946,대전광역시 중구
유천2동제1노상,노상,대전광역시 중구 문화로 149,대전광역시 중구 유천동 142-14,36.31377283,127.4018983,대전광역시 중구
유천2동제3노상,노상,대전광역시 중구 유천로18번길 68,대전광역시 중구 유천동 141-1,36.31495743,127.402597,대전광역시 중구
유천2동제4노상,노상,대전광역시 중구 유천로34번길 78,대전광역시 중구 유천동 137-1,36.31653954,127.402704,대전광역시 중구
유천2동제5노상,노상,대전광역시 중구 계백로1566번길 57,대전광역시 중구 유천동 297-21,36.31501653,127.3953088,대전광역시 중구
유천2동제6노상,노상,대전광역시 중구 문화로105번길 30,대전광역시 중구 유천동 272-1,36.31360908,127.396991,대전광역시 중구
은행동제2노상,노상,대전광역시 중구 대종로 528,대전광역시 중구 은행동 24-8,36.33098666,127.4238228,대전광역시 중구
중촌동제1노상,노상,대전광역시 중구 목중로26번길 29,대전광역시 중구 중촌동 16-1,36.33861226,127.4109113,대전광역시 중구
중촌동제2노상,노상,대전광역시 중구 목중로 50,대전광역시 중구 중촌동 16-10,36.3378398,127.4096161,대전광역시 중구
중촌동제3노상,노상,대전광역시 중구 동서대로1421번길 28,대전광역시 중구 중촌동 405-3,36.33612296,127.4128149,대전광역시 중구
중촌동제4노상,노상,대전광역시 중구 대전천서로 616,대전광역시 중구 중촌동 382-1,36.33855904,127.4159804,대전광역시 중구
중촌동제5노상,노상,대전광역시 중구 대종로 634,대전광역시 중구 중촌동 14-1,36.33842277,127.4147891,대전광역시 중구
중촌동제6노상,노상,대전광역시 중구 대종로 634,대전광역시 중구 중촌동 14-1,36.33842277,127.4147891,대전광역시 중구
중촌동제7노상,노상,대전광역시 중구 대종로 661,대전광역시 중구 중촌동 102-1,36.33901906,127.4126086,대전광역시 중구
중촌동제8노상,노상,대전광역시 중구 어덕마을로 160-10,대전광역시 중구 중촌동 25-7,36.34254883,127.4103435,대전광역시 중구
중촌동제9노상,노상,대전광역시 중구 목중로26번길 29,대전광역시 중구 중촌동 16-1,36.33861226,127.4109113,대전광역시 중구
태평1동제1노상,노상,대전광역시 중구 수침로 54-3,대전광역시 중구 태평동 278-14,36.32443408,127.4011119,대전광역시 중구
태평1동제2노상,노상,대전광역시 중구 수침로 54-22,대전광역시 중구 태평동 281-12,36.32403193,127.4020094,대전광역시 중구
석교동제1노상,노상,대전광역시 중구 신기로7번길 10,대전광역시 중구 석교동 84-15,36.3075822,127.4476717,대전광역시 중구
석교동제2노상,노상,대전광역시 중구 대종로 235,대전광역시 중구 석교동 9-1,36.30961984,127.4413979,대전광역시 중구
석교동제3노상,노상,대전광역시 중구 대종로 228,대전광역시 중구 석교동 12-4,36.30970496,127.4424094,대전광역시 중구
선화동제5노상,노상,대전광역시 중구 중앙로 101,대전광역시 중구 선화동 287-2,36.32677115,127.4207316,대전광역시 중구
선화동제6노상,노상,대전광역시 중구 대종로594번길 1,대전광역시 중구 선화동 120-5,36.33532208,127.4181814,대전광역시 중구
선화동제7노상,노상,대전광역시 중구 보문로 341,대전광역시 중구 선화동 151-1,36.3329134,127.4188053,대전광역시 중구
안영동제1노상,노상,대전광역시 중구 안영로 34,대전광역시 중구 안영동 650,36.29206098,127.3797727,대전광역시 중구
안영동제3노상,노상,대전광역시 중구 대둔산로 184번길 17,대전광역시 중구 안영동 694,36.28658038,127.3795899,대전광역시 중구
안영동제4노상,노상,대전광역시 중구 성산로 16,대전광역시 중구 안영동 650,36.29125932,127.379876,대전광역시 중구
오류동제1노상,노상,대전광역시 중구 오류로 41,대전광역시 중구 오류동 116-3,36.32400372,127.403482,대전광역시 중구
오류동제6노상,노상,대전광역시 중구 오류로74번길 13,대전광역시 중구 오류동 184-34,36.32712348,127.4038104,대전광역시 중구
오류동제7노상,노상,대전광역시 중구 계룡로816번길 42-8,대전광역시 중구 오류동 186-36,36.32687563,127.4043787,대전광역시 중구
오류동제8노상,노상,대전광역시 중구 계백로 1679,대전광역시 중구 오류동 168-7,36.32097663,127.4058346,대전광역시 중구
오류동제9노상,노상,대전광역시 중구 오류로 97-2,대전광역시 중구 오류동 190-17,36.32902555,127.4019800458,대전광역시 중구
옥계동제1노상,노상,대전광역시 중구 학고개로57번길 82,대전광역시 중구 옥계동 201,36.29647966,127.454621,대전광역시 중구
옥계동제2노상,노상,대전광역시 중구 대종로71번길 13,대전광역시 중구 옥계동 47-23,36.29903653,127.4533302,대전광역시 중구
옥계동제3노상,노상,대전광역시 중구 대종로 41,대전광역시 중구 옥계동 149-14,36.29708055,127.4559055,대전광역시 중구
옥계동제4노상,노상,대전광역시 중구 대종로71번길 98,대전광역시 중구 옥계동 27-8,36.30046116,127.4502407,대전광역시 중구
용두동제1노상,노상,대전광역시 중구 선화로 17,대전광역시 중구 용두동 27-13,36.32680851,127.4111889,대전광역시 중구
용두동제2노상,노상,대전광역시 중구 동서대로1327번길 68,대전광역시 중구 용두동 144-7,36.33181963,127.4046013,대전광역시 중구
용두동제3노상,노상,대전광역시 중구 동서대로1327번길 46,대전광역시 중구 용두동 141-11,36.33101961,127.4054666,대전광역시 중구
오류동제7노상,노상,대전광역시 중구 계룡로816번길 42-8,대전광역시 중구 오류동 186-36,,,대전광역시
오류동제8노상,노상,대전광역시 중구 계백로 1679,대전광역시 중구 오류동 168-7,,,대전광역시
오류동제9노상,노상,대전광역시 중구 오류로 97-2,대전광역시 중구 오류동 190-17,,,대전광역시
옥계동제1노상,노상,대전광역시 중구 학고개로57번길 82,대전광역시 중구 옥계동 201,,,대전광역시
옥계동제2노상,노상,대전광역시 중구 대종로71번길 13,대전광역시 중구 옥계동 47-23,,,대전광역시
옥계동제3노상,노상,대전광역시 중구 대종로 41,대전광역시 중구 옥계동 149-14,,,대전광역시
옥계동제4노상,노상,대전광역시 중구 대종로71번길 98,대전광역시 중구 옥계동 27-8,,,대전광역시
용두동제1노상,노상,대전광역시 중구 선화로 17,대전광역시 중구 용두동 27-13,,,대전광역시
용두동제2노상,노상,대전광역시 중구 동서대로1327번길 68,대전광역시 중구 용두동 144-7,,,대전광역시
산성동제6노상,노상,대전광역시 중구 산성로 32,대전광역시 중구 산성동 321,36.30636934,127.3923831,대전광역시 중구
산성동제13노상,노상,대전광역시 중구 유등천동로 218,대전광역시 중구 산성동 120-15,36.30342557,127.3827292,대전광역시 중구
산성동제7노상,노상,대전광역시 중구 대둔산로364번길 33-12,대전광역시 중구 산성동 275-1,36.30244065,127.388296,대전광역시 중구
산성동 제8노상,노상,대전광역시 중구 문화로45번길 15-1,대전광역시 중구 산성동 147-31,36.31129641,127.3904698,대전광역시 중구
산성동 제9노상,노상,대전광역시 중구 대둔산로480번길 8,대전광역시 중구 산성동 145-4,36.31176845,127.3893938,대전광역시 중구
산성동 제10노상,노상,대전광역시 중구 산성로57번길 16,대전광역시 중구 산성동 64-48,36.30808528,127.3947383,대전광역시 중구
벌말지구 주차장,노외,대전광역시 대덕구 대청로 526번길 33,대전광역시 대덕구 미호동 220-6,36.46720558,127.4708289,대전광역시 대덕구
중리미래공영주차장,노외,대전광역시 대덕구 중리로75번길 9,대전광역시 대덕구 중리동 363-23,36.36564901,127.4244429,대전광역시 대덕구
용호동주차장,노외,,대전광역시 대덕구 용호동 177-1,36.436087,127.4508958,대전광역시 대덕구
삼정동 제1공영주차장,노외,,대전광역시 대덕구 삼정동 310-1,36.45001037,127.4668463,대전광역시 대덕구
중리행복길①공영주차장,노외,대전광역시 대덕구 중리남로27번길 5,대전광역시 대덕구 중리동 196-10,36.360762,127.4288059,대전광역시 대덕구
중리행복길②공영주차장,노외,대전광역시 대덕구 중리동로17번길 32,대전광역시 대덕구 중리동 197-17,36.360553,127.4279318,대전광역시 대덕구
중리만남공영주차장,노외,대전광역시 대덕구 중리남로8번길 3,대전광역시 대덕구 중리동 180-1,36.36149254,127.4305618,대전광역시 대덕구
비래동 제2공영주차장,노외,,대전광역시 대덕구 비래동 412-2,36.36621624,127.4474996,대전광역시 대덕구
중리구봉공영주차장,노외,,대전광역시 대덕구 중리동 164-5,36.361489,127.4270616,대전광역시 대덕구
용호마을테마먹거리촌공영주차장,노외,대전광역시 대덕구 대청로 238,대전광역시 대덕구 용호동 44-2,36.44832071,127.4512973,대전광역시 대덕구
한촌공원 주차장,노외,,대전광역시 대덕구 중리동 223-1,36.35715496,127.4217853,대전광역시 대덕구
비래동로 31번길 공영주차장,노외,대전광역시 대덕구 비래동로31번길 13,대전광역시 대덕구 비래동 128-4,36.35661308,127.4497824,대전광역시 대덕구
비래동로 23번길 공영주차장,노외,대전광역시 대덕구 비래동로23번길 28,대전광역시 대덕구 비래동 128-10,36.356673,127.4490253,대전광역시 대덕구
회덕동 공영주차장,노외,,대전광역시 대덕구 읍내동 247-3,36.3767305,127.4217681,대전광역시 대덕구
산디마을 공영주차장,노외,,대전광역시 대덕구 장동 670,36.3952939,127.4424192,대전광역시 대덕구
석봉과선교 철도주변 공영주차장,노외,,대전광역시 대덕구 석봉동 387-3,36.44667756,127.428621,대전광역시 대덕구
새뜸마을안길 공영주차장,노외,,대전광역시 대덕구 장동 783,36.40287276,127.4361139,대전광역시 대덕구
장동욕골지구 공영주차장,노외,대전광역시 대덕구 장동로 223-10,대전광역시 대덕구 장동 367-4,36.4140307,127.438006,대전광역시 대덕구
송촌공영주차장,노외,대전광역시 대덕구 계족산로81번길 11,대전광역시 대덕구 송촌동 478-1,36.36366454,127.4399154,대전광역시 대덕구
송촌먹자골목공영주차장,노외,대전광역시 대덕구 송촌북로32번길 28,대전광역시 대덕구 송촌동 458,36.36549657,127.4377195,대전광역시 대덕구
송촌주민센터공영주차장,노외,대전광역시 대덕구 동춘당로114번길 9,대전광역시 대덕구 송촌동 460-1,36.36700874,127.4382093,대전광역시 대덕구
읍내어울림공영주차장,노외,대전광역시 대덕구 계족로 728,대전광역시 대덕구 읍내동 575-5,36.37632865,127.4277639,대전광역시 대덕구
송촌소리공영주차장,노외,대전광역시 대덕구 계족산로81번길 116,대전광역시 대덕구 송촌동 448-1,36.36731791,127.4364683,대전광역시 대덕구
송촌대양공영주차장,노외,대전광역시 대덕구 계족산로36번길 71,대전광역시 대덕구 송촌동 487-1,36.36225469,127.439054,대전광역시 대덕구
송촌진가쟁이공영주차장,노외,대전광역시 대덕구 선비마을로5번길 26,대전광역시 대덕구 송촌동 505-2,36.36283038,127.4451787,대전광역시 대덕구
법동생활체육공영주차장,노외,대전광역시 대덕구 선비마을로 260,대전광역시 대덕구 법동 440-1,36.37496754,127.428366,대전광역시 대덕구
대화동 두레 주차장,노외,대전광역시 대덕구 대화15길 34,대전광역시 대덕구 대화동 16-25,36.36346341,127.417612,대전광역시 대덕구
신탄진역앞공영주차장,노외,대전광역시 대덕구 신탄진동로7번길 64,대전광역시 대덕구 신탄진동 140-25,36.45041533,127.4297186,대전광역시 대덕구
산중골주차장,노외,대전광역시 대덕구 계족로740번길 80,대전광역시 대덕구 읍내동 11-1,36.37825836,127.4314387,대전광역시 대덕구
신대지구 제1공영주차장,노외,,대전광역시 대덕구 신대동 357-5,36.3977378,127.4205356,대전광역시 대덕구
신대지구 제2공영주차장,노외,,대전광역시 대덕구 신대동 238-1,36.3981338,127.4187879,대전광역시 대덕구
비래동공영주차장,노외,대전광역시 대덕구 비래동로16번길 49,대전광역시 대덕구 비래동 143-7,36.354602,127.4525433,대전광역시 대덕구
대덕산업단지주차장,노외,대전광역시 대덕구 문평동로 16,대전광역시 대덕구 문평동 80-1,36.44610531,127.4035766,대전광역시 대덕구
남경지구 제1공영주차장,노외,,대전광역시 대덕구 신탄진동 266-15,36.44350713,127.4318297,대전광역시 대덕구
남경지구 제2공영주차장,노외,,대전광역시 대덕구 신탄진동 295-128,36.4428146,127.4304192,대전광역시 대덕구
남경지구 제3공영주차장,노외,,대전광역시 대덕구 신탄진동 295-137,36.4429067,127.4314286,대전광역시 대덕구
송촌도서관 주차장,노외,대전광역시 대덕구 송촌로 59,대전광역시 대덕구 송촌동 165,36.360082,127.4401573,대전광역시 대덕구
문창시장공영주차장,노외,대전광역시 중구 대전천서로 279,대전광역시 중구 문창동 116-8,36.31561672,127.4384886,대전광역시 중구
유천시장공영주차장,노외,대전광역시 중구 유천로47번길 22,대전광역시 중구 유천동 211-5,36.31692977,127.3966599,대전광역시 중구
선화동제2노외,노외,대전광역시 중구 대종로521번길 29,대전광역시 중구 선화동 236-8,36.3291468,127.4220455,대전광역시 중구
대흥동제3노외,노외,대전광역시 중구 대흥로111번길 35,대전광역시 중구 대흥동 452-30,36.32463693,127.4237318,대전광역시 중구
대흥동제5노외,노외,대전광역시 중구 보문로230번길 37-2,대전광역시 중구 대흥동 452-74,36.32411911,127.4247484,대전광역시 중구
가양2동 50-2～ 85-2번지선,노상,대전광역시 동구 흥룡로,대전광역시 동구 가양2동사무소 맞은 편,,,대전광역시
대전일보 앞,노상,대전광역시 서구 계룡로314,대전광역시 서구 갈마동274-7,36.35351294,127.3639298,대전광역시 서구
서구청 앞,노상,대전광역시 서구 둔산서로 100,대전광역시 서구 둔산동 1300,36.35551069,127.3842716,대전광역시 서구
을지병원주변,노상,대전광역시 서구 둔산서로95,대전광역시 서구 둔산동1306,36.35504935,127.3820049,대전광역시 서구
월평길(월평초~월평중),노상,대전광역시 서구 월평동로21,대전광역시 서구 월평동663,36.35644125,127.3677733,대전광역시 서구
둔지미길(향촌@~파랑새@),노상,대전광역시 서구 둔지로 75,대전광역시 서구 둔산동 957,36.35604019,127.3764671,대전광역시 서구
갈마2동큰마을네거리주변,노상,대전광역시 서구 대덕대로164,대전광역시 서구 갈마동1435,36.34765243,127.376635,대전광역시 서구
계룡로 주변 노상주차장,노상,대전광역시 서구 대덕대로 176번길75,대전광역시 서구 둔산동1136,36.3462951,127.3795337,대전광역시 서구
석교동제3노상,노상,대전광역시 중구 대종로 228,대전광역시 중구 석교동 12-4,,,대전광역시
둔산로31번길,노상,대전광역시 서구 둔산로31번길72,대전광역시 서구 둔산동1001,36.35486894,127.3778061,대전광역시 서구
도시철도공사주변,노상,대전광역시 서구 월드컵대로480,대전광역시 서구 월평동160-20,36.34814869,127.352659,대전광역시 서구
산성동 제10노상,노상,대전광역시 중구 산성로 57번길 16-19,대전광역시 중구 산성동 64-48,,,대전광역시
석교동제1노상,노상,대전광역시 중구 신기로7번길 10,대전광역시 중구 석교동 84-15,,,대전광역시
석교동제2노상,노상,대전광역시 중구 대종로 235,대전광역시 중구 석교동 9-1,,,대전광역시
선화동제5노상,노상,대전광역시 중구 중앙로 101,대전광역시 중구 선화동 287-2,,,대전광역시
선화동제6노상,노상,대전광역시 중구 대종로594번길 1,대전광역시 중구 선화동 120-5,,,대전광역시
선화동제7노상,노상,대전광역시 중구 보문로 341,대전광역시 중구 선화동 151-1,,,대전광역시
선화동제9노상,노상,대전광역시 중구 선화서로 130번길 24,대전광역시 중구 선화동 157-1,,,대전광역시
안영동제1노상,노상,대전광역시 중구 안영로 34,대전광역시 중구 안영동 650,,,대전광역시
"안영동 창명2길, 4길",노상,대전광역시 중구 대둔산로 184번길 17,대전광역시 중구 안영동 694,,,대전광역시
안영동 성산3길,노상,대전광역시 중구 성산로 16,대전광역시 중구 안영동 650,,,대전광역시
오류동제1노상,노상,대전광역시 중구 오류로 41,대전광역시 중구 오류동 116-3,,,대전광역시
오류동제6노상,노상,대전광역시 중구 오류로74번길 13,대전광역시 중구 오류동 184-34,,,대전광역시
한국시스템공학센터울타리,노상,대전광역시 유성구 대학로 99 (궁동),대전광역시 유성구 어은동 52,,,대전광역시
산성동제2노상,노상,대전광역시 중구 대둔산로466번길 17,대전광역시 중구 산성동 145-40,,,대전광역시
산성동제3노상,노상,대전광역시 중구 보문산로 31,대전광역시 중구 산성동 78-5,,,대전광역시
산성동제4노상,노상,대전광역시 중구 대둔산로480번길 41,대전광역시 중구 산성동 136-95,,,대전광역시
산성동제5노상,노상,대전광역시 중구 유등천동로 292번길 89-14,대전광역시 중구 산성동 36-1번지 일원,,,대전광역시
산성동제6노상,노상,대전광역시 중구 산성로 32,대전광역시 중구 산성동 321번지 일원,,,대전광역시
산성동잔디1길,노상,대전광역시 중구 보문산로36번길 30,대전광역시 중구 산성동 120-15,,,대전광역시
산성동제7노상,노상,대전광역시 중구 대둔산로364번길 33-12,대전광역시 중구 산성동 275-1,,,대전광역시
산성동 제8노상,노상,대전광역시 중구 문화로 45번길,대전광역시 중구 산성동 147-31,,,대전광역시
산성동 제9노상,노상,대전광역시 중구 대둔산로480번길 8,대전광역시 중구 산성동 145-4,,,대전광역시
태평2동제1노외,노외,대전광역시 중구 유등천동로 396,대전광역시 중구 태평동 510-165,36.31705207,127.3868389,대전광역시 중구
태평2동제2노외,노외,대전광역시 중구 유등천동로 396,대전광역시 중구 태평동 423-22,36.31705207,127.3868389,대전광역시 중구
목동제1노외,노외,대전광역시 중구 목동로8번길 68,대전광역시 중구 목동 1-123,36.33438828,127.4124509,대전광역시 중구
문화1동제1노외,노외,,대전광역시 중구 문화동 44-2,36.30772838,127.4108213,대전광역시 중구
문화1동제2노외,노외,대전광역시 중구 과례로22번길 49,대전광역시 중구 문화동 114-1,36.30864957,127.4111884,대전광역시 중구
문화1동제3노외,노외,,대전광역시 중구 문화동 263-10,36.31381508,127.4114552,대전광역시 중구
문화1동제4노외,노외,,대전광역시 중구 문화동 259-6,36.31358989,127.4114792,대전광역시 중구
문화1동제5노외,노외,,대전광역시 중구 문화동 231-11,36.31294008,127.4112948,대전광역시 중구
문화1동제6노외,노외,대전광역시 중구 보문산로 345-8,대전광역시 중구 문화동 11-223,36.31352927,127.4146879,대전광역시 중구
문화1동제7노외,노외,,대전광역시 중구 문화동 13-9,36.3148502,127.4143978,대전광역시 중구
부사동제1노외,노외,대전광역시 중구 부용로 55,대전광역시 중구 부사동 423-6,36.30885556,127.4308234,대전광역시 중구
부사동제2노외,노외,대전광역시 중구 부사로32번길 15,대전광역시 중구 부사동 366-3,36.30947338,127.4354324,대전광역시 중구
부사동제3노외,노외,대전광역시 중구 부용로 32,대전광역시 중구 부사동 429-6,36.31077745,127.4306134,대전광역시 중구
안영동제2노외,노외,,대전광역시 중구 안영동 697,36.28529788,127.3825142,대전광역시 중구
안영동제3노외,노외,,대전광역시 중구 안영동 663,36.2905556,127.3797022,대전광역시 중구
침산동제1노외,노외,대전광역시 중구 산서로 180,대전광역시 중구 침산동 360,36.28716232,127.3909063,대전광역시 중구
석교동제1노외,노외,,대전광역시 중구 석교동 244-7,36.30717787,127.4368931,대전광역시 중구
대흥동제1노외,노외,대전광역시 중구 대종로452번길 27,대전광역시 중구 대흥동 125-1,36.32584044,127.4291892,대전광역시 중구
으능정이상점가 고객주차장,노외,대전광역시 중구 중교로 79-1,대전광역시 중구 은행동 170-8,36.32704845,127.4282661,대전광역시 중구
오류동제1노외,노외,,대전광역시 중구 오류동 175-7,36.32320782,127.4099592,대전광역시 중구
오류동제2노외,노외,대전광역시 중구 계룡로 860-9,대전광역시 중구 오류동 149-3,36.32376733,127.4102098,대전광역시 중구
비래동로노상공영주차장,노상,대전광역시 대덕구 비래동로 10,대전광역시 대덕구 비래동 140-5,36.35490718,127.4500177,대전광역시 대덕구
계족산로81번길 노상주차장,노상,,대전광역시 대덕구 송촌동 534,36.36526627,127.4387162,대전광역시 대덕구
동춘당생애길①공영주차장,노외,대전광역시 대덕구 계족산로 2,대전광역시 대덕구 중리동 507-1,36.36130697,127.4320404,대전광역시 대덕구
동춘당생애길②공영주차장,노외,대전광역시 대덕구 계족산로 2,대전광역시 대덕구 중리동 506,36.36130697,127.4320404,대전광역시 대덕구
중리정려각공영주자장,노외,대전광역시 대덕구 송촌북로5번길 10,대전광역시 대덕구 중리동 498-2,36.36293133,127.4363814,대전광역시 대덕구
동춘당로94번길 노상주차장,노상,,대전광역시 대덕구 송촌동 525,36.36761288,127.4378154,대전광역시 대덕구
만년동서구보건소주변,노상,대전광역시 서구 만년로74,대전광역시 서구 만년동340,,,대전광역시
법원.검찰청앞갤러리아옆,노상,대전광역시 서구 둔산중로78번길 15,대전광역시 서구 둔산동1390,,,대전광역시
법원.검찰청연장노선,노상,대전광역시 서구 둔산중로78번길 15,대전광역시 서구 둔산동1390,,,대전광역시
탄방동로데오타운주변,노상,대전광역시 서구 문정로77,대전광역시 서구 탄방동746,,,대전광역시
둔산로31번길,노상,대전광역시 서구 둔산로31번길72,대전광역시 서구 둔산동1001,,,대전광역시
도시철도공사주변,노상,대전광역시 서구 월드컵대로480,대전광역시 서구 월평동160-20,,,대전광역시
대전일보 앞,노상,대전광역시 서구 계룡로314,대전광역시 서구 갈마동274-7,,,대전광역시
서구청 앞,노상,대전광역시 서구 둔산서로100,대전광역시 서구 둔산동1300,,,대전광역시
을지병원주변,노상,대전광역시 서구 둔산서로95,대전광역시 서구 둔산2동1306,,,대전광역시
월평길(월평초~월평중),노상,대전광역시 서구 월평동로21,대전광역시 서구 월평동663,,,대전광역시
둔지미길(향촌@~파랑새@),노상,대전광역시 서구 둔지로75,대전광역시 서구 둔산동957,,,대전광역시
갈마2동큰마을네거리주변,노상,대전광역시 서구 대덕대로164,대전광역시 서구 갈마동1435,,,대전광역시
가양2동 39-9～49-23번지선,노상,대전광역시 동구 흥룡로,대전광역시 동구 가양2동사무소 앞,,,대전광역시
동원수산 앞,노상,대전광역시 유성구 노은동로75번길(노은동),대전광역시 유성구 노은동 594일원,,,대전광역시
반석동공영주변,노상,대전광역시 유성구 반석로11번길(반석동),대전광역시 유성구 반석동 641 반석동공영~행복한교회,,,대전광역시
송강청솔@~송강@,노상,대전광역시 유성구 와룡로 136번길(시간제주차),대전광역시 유성구 봉산동 295,,,대전광역시
유성장로교회앞,노상,대전광역시 유성구 계룡로16번길43(구암동),대전광역시 유성구 구암동 80-3~586-9,,,대전광역시
유성고등학교 주변,노상,대전광역시 유성구 유성대로654번길 130(구암동),대전광역시 유성구 구암동 611-31일원,,,대전광역시
성원상떼빌 주변,노상,"대전광역시 유성구 온천서로 36-19 (장대동, 성원상떼빌)",대전광역시 유성구 장대동 376-2일원,,,대전광역시
계룡스파텔 옆,노상,대전광역시 유성구 온천로 81 (봉명동),대전광역시 유성구 봉명동 539-1,,,대전광역시
청주해장국 앞,노상,대전광역시 유성구 대학로 23 (봉명동),대전광역시 유성구 봉명동 535-7~535-8,,,대전광역시
유성우체국 앞,노상,대전광역시 유성구 온천로 45 (봉명동),대전광역시 유성구 봉명동 536-8~538-7,,,대전광역시
아드리아호텔 앞,노상,대전광역시 유성구 온천로 27 (봉명동),대전광역시 유성구 봉명동 442-4~442-19,,,대전광역시
유성호텔 앞,노상,대전광역시 유성구 온천로 81 (봉명동),대전광역시 유성구 봉명동 528,,,대전광역시
계룡스파텔 앞,노상,대전광역시 유성구 온천로 81(봉명동),대전광역시 유성구 봉명동 539-1,,,대전광역시
"장명교~경원장, 파라곤모텔앞",노상,대전광역시 유성구 계룡로87번길 72 (봉명동),대전광역시 유성구 봉명동 535-2 장명교옆,,,대전광역시
상수도사업본부 유성사업소 주변,노상,대전광역시 유성구 한밭대로492번길 26-14 (봉명동),대전광역시 유성구 봉명동 665-6일원,,,대전광역시
농촌공사 주변,노상,대전광역시 유성구 한밭대로313번길 21(장대동),대전광역시 유성구 장대동 24-2일원,,,대전광역시
장대동공영주차장주변,노상,대전광역시 유성구 유성대로729번길 40,대전광역시 유성구 장대동 263-4일원,,,대전광역시
학사마을 주변,노상,대전광역시 유성구 유성대로822번길 16 (장대동),대전광역시 유성구 장대동 317-3일원,,,대전광역시
월드컵패밀리타운 주변,노상,"대전광역시 유성구 유성대로783번길 38 (장대동, 월드컵패밀리타운)",대전광역시 유성구 장대동 323-2일원,,,대전광역시
장대동 364일원,노상,대전광역시 유성구 문화원로14번길 39-2(장대동),대전광역시 유성구 장대동 364일원,,,대전광역시
궁동공영 주변,노상,대전광역시 유성구 대학로163번길 18 (궁동),대전광역시 유성구 궁동 428-2 봉암공원~궁동공영입구,,,대전광역시
계룡로 주변 노상주차장,노상,대전광역시 서구 대덕대로 176번길75,대전광역시 서구 둔산2동 1136,,,대전광역시
진잠우체국 앞,노상,대전광역시 유성구 진잠로92번길 75 (원내동),대전광역시 유성구 원내동 93-12 일원(진잠우체국~진잠도서관),,,대전광역시
카운티스 앞,노상,"대전광역시 유성구 노은서로 124 (노은동, 노은카운티스)",대전광역시 유성구 노은동 572일원,,,대전광역시
월평1동이마트주변,노상,대전광역시 서구 한밭대로 580,대전광역시 서구 월평동 510,36.35749359,127.3625418,대전광역시 서구
월평2동둔산선사유적지옆,노상,대전광역시 서구 대덕대로317번길9,대전광역시 서구 월평동281,36.36041144,127.3777193,대전광역시 서구
대전일보~월평타운구간,노상,대전광역시 서구 계룡로264번길43,대전광역시 서구 월평동29-3,36.35318043,127.3608016,대전광역시 서구
탄방동탄방역주변,노상,대전광역시 서구 계룡로553번길38,대전광역시 서구 탄방동667,36.34462122,127.3855677,대전광역시 서구
만년동서구보건소주변,노상,대전광역시 서구 만년로74,대전광역시 서구 만년동340,36.36699284,127.3810828,대전광역시 서구
법원.검찰청앞갤러리아옆,노상,대전광역시 서구 둔산중로78번길 15,대전광역시 서구 둔산동1390,36.35435035,127.3877809,대전광역시 서구
법원.검찰청연장노선,노상,대전광역시 서구 둔산중로78번길 45,대전광역시 서구 둔산동 1390,36.35439055,127.3892768,대전광역시 서구
탄방동로데오타운주변,노상,대전광역시 서구 문정로 77,대전광역시 서구 탄방동 746,36.34754986,127.3881287,대전광역시 서구
유성구청~어은공원,노상,대전광역시 유성구 대학로 211 (어은동),대전광역시 유성구 어은동 109~108,,,대전광역시
진잠우체국옆,노상,대전광역시 유성구 원내로39번길 25 (원내동),대전광역시 유성구 원내동 92-14 세븐일레븐~신대산식당,,,대전광역시
중앙시장 제3공영주차장,노외,,대전광역시 동구 중동 93-2,36.33015952,127.431466,대전광역시 동구
천동 주차장,노외,,대전광역시 동구 천동 513,36.31619595,127.4464511,대전광역시 동구
선화교 하상주차장(삼성동),노외,,대전광역시 동구 삼성동 448-4,36.33328345,127.4254312,대전광역시 동구
신흥동 제1치수교 하상주차장,노외,,대전광역시 동구 신흥동 206-3,36.3221879,127.4439629,대전광역시 동구
인동시장노외공영주차장,노외,,대전광역시 동구 인동 30-1,36.32262171,127.4362841,대전광역시 동구
정동 노외공영주차장,노외,,대전광역시 동구 정동 3-4,36.33500223,127.4311474,대전광역시 동구
용운시장 주차장,노외,,대전광역시 동구 용운동 349-4,36.32724201,127.4604354,대전광역시 동구
용전동 제2공영주차장(BBS부지),노외,,대전광역시 동구 용전동 232,36.35171254,127.4351109,대전광역시 동구
용전동주민센터옆공영주차장,노외,,대전광역시 동구 용전동 28-34,36.35784901,127.432148,대전광역시 동구
대동복지센터주차장,노외,,대전광역시 동구 대동 1-842,36.33039612,127.4506836,대전광역시 동구
대동이스트시티옆 공영주차장,노외,,대전광역시 동구 신흥동 258,36.32696603,127.4407116,대전광역시 동구
대성동 노외공영주차장,노외,,대전광역시 동구 대성동 419,36.29929897,127.4589115,대전광역시 동구
대전천주변노외공영주차장,노외,,대전광역시 동구 중동 51-16,,,대전광역시 동구
세천4 공한지 주차장,노외,,대전광역시 동구 세천동 321-4,36.33306946,127.4848769,대전광역시 동구
세천5 공한지 주차장,노외,,대전광역시 동구 세천동 18-21,36.33869794,127.4918832,대전광역시 동구
세천6 공한지 주차장,노외,,대전광역시 동구 세천동 35-2,36.34100791,127.4914369,대전광역시 동구
세천7 공한지 주차장,노외,,대전광역시 동구 세천동 32-9,36.34262877,127.4909165,대전광역시 동구
세천8 공한지 주차장,노외,,대전광역시 동구 세천동 76-1,36.34249528,127.4932452,대전광역시 동구
신상동 안아감마을 공동주차장,노외,,대전광역시 동구 신상동 150-1,36.35303478,127.5153256,대전광역시 동구
신하동 마을공영주차장,노외,,대전광역시 동구 신하동 343-15,36.36236129,127.5011658,대전광역시 동구
홍도동 경성3차@~청룡@ 주변,노상,,대전광역시 동구 홍도동 13-11,36.34650898,127.4295679,대전광역시 동구
가양동체육센터앞주차장,노외,,대전광역시 동구 가양동 709-1,36.3394448,127.4377187,대전광역시 동구
낭월동 공한지 주차장,노외,,대전광역시 동구 낭월동 584,36.27856609,127.4679419,대전광역시 동구
"용운동 삼정하이츠, 문충사 주변",노상,,대전광역시 동구 용운동 538,36.32606044,127.4583598,대전광역시 동구
용운동 일반통행길(하행길),노상,,대전광역시 동구 용운동 460,36.32667232,127.4504241,대전광역시 동구
용운동 일방통행길(상행길),노상,,대전광역시 동구 용운동 147,36.33066465,127.4546989,대전광역시 동구
우송대학교 서 캠퍼스 후문,노상,,대전광역시 동구 자양동 147-11,36.33685081,127.4467792,대전광역시 동구
원동중동 천변 노상,노상,,대전광역시 동구 중동 47-52,36.33267309,127.4266419,대전광역시 동구
자양동 쌍용주유소 뒷길,노상,,대전광역시 동구 자양동 345,36.34106397,127.4500364,대전광역시 동구
자양동 우송대학교 동 캠퍼스 담길,노상,,대전광역시 동구 자양동 98-17,36.33549492,127.4520705,대전광역시 동구
판암1동 주공(아) 211동 담길,노상,,대전광역시 동구 판암동 717,36.31773354,,대전광역시 동구
판암IC옆(개심사 가는 방향),노상,,대전광역시 동구 판암동 3,36.31821513,127.4655034,대전광역시 동구
판암동 복개도로 위(삼성전자 판매장 뒤),노상,,대전광역시 동구 판암동 570,36.31890191,127.4518006,대전광역시 동구
"삼성동 한국아파트 주변(현암로18번길, 태전로174번 안길)",노상,,대전광역시 동구 삼성동 383-4,36.34352237,127.4182839,대전광역시 동구
삼정동구정골마을공영주차장,노외,,대전광역시 동구 삼정동 70,36.32613962,127.4752925,대전광역시 동구
성남동 효촌아파트 담길,노상,,대전광역시 동구 성남동 216-25,36.34632814,127.4356992,대전광역시 동구
신흥삼거리~제1치수교,노상,,대전광역시 동구 신흥동 7,36.32222266,127.4440077,대전광역시 동구
용운동 도리어린이공원 주변,노상,,대전광역시 동구 용운동 284-1,36.32945337,127.4615789,대전광역시 동구
용운동 모리아파트 담길,노상,,대전광역시 동구 용운동 319-3,36.32303629,127.461761,대전광역시 동구
대동복개도로(대동시장길),노상,,대전광역시 동구 대동 156,36.32871773,127.4419215,대전광역시 동구
삼성동 삼성철교,노상,,대전광역시 동구 삼성동 473,36.34360991,127.4231759,대전광역시 동구
가양2동 39-9～49-23번지선,노상,대전광역시 동구 흥룡로 23,대전광역시 동구 가양동 39-9,36.3487402,127.4464829,대전광역시 동구
가양2동 50-2～ 85-2번지선,노상,대전광역시 동구 우암로 355-1,대전광역시 동구 가양동 50-2,36.35082219,127.4521599,대전광역시 동구
가양2동 대주파크빌(아) 뒷길,노상,대전광역시 동구 동대전로248번길 3,대전광역시 동구 가양동 650-9,36.34369048,127.4474463,대전광역시 동구
가양동 가양천 복개길,노상,대전광역시 동구 우암로 192,대전광역시 동구 가양동 705,36.34042382,127.4411662,대전광역시 동구
가양동 가양천 복개길,노상,대전광역시 동구 가양로 86,대전광역시 동구 가양동 436-10,36.34405384,127.4424328,대전광역시 동구
"계족로 409, 417, 423번길",노상,대전광역시 동구 계족로423번길 5,대전광역시 동구 홍도동 4-3,36.34957916,127.4316525,대전광역시 동구
녹색주차마을(용운동),노상,대전광역시 동구 새울로68번길 33-9,대전광역시 동구 용운동 390-6,36.32477514,127.4642553,대전광역시 동구
녹색주차마을(자양동),노상,대전광역시 동구 충정로 115-16,대전광역시 동구 자양동 210-11,36.34333403,127.4515285,대전광역시 동구
대동 보현문화회관 뒷길,노상,대전광역시 동구 대자양5길 5,대전광역시 동구 대동 207-13,36.33160105,127.441407,대전광역시 동구
대동복개도로(대동시장길),노상,,대전광역시 동구 대동 114-1,36.32870428,127.4414161,대전광역시 동구
대전천우안8길(북부교~현암교),노상,대전광역시 동구 대전천북로 38,대전광역시 동구 삼성동 312-6,36.33770537,127.4244605,대전광역시 동구
삼성동 건강보험관리공단 주변,노상,대전광역시 동구 동서대로 1495,대전광역시 동구 삼성동 332-3,36.34018796,127.4198058,대전광역시 동구
"삼성동 검배2길, 4길, 5길",노상,대전광역시 동구 대전천북로 18-11,대전광역시 동구 삼성동 309-1,36.33933262,127.4254223,대전광역시 동구
삼성동 동구보건소 담길,노상,대전광역시 동구 현암로 22,대전광역시 동구 삼성동 374-1,36.34298597,127.4204612,대전광역시 동구
삼성동 동산교회 앞길(오정철로길),노상,대전광역시 동구 대전로987번길 11,대전광역시 동구 삼성동 379-1,36.34447053,127.4200639,대전광역시 동구
삼성동 삼성물류센터 주변,노상,대전광역시 동구 현암로 64,대전광역시 동구 삼성동 395-9,36.34246615,127.4159097,대전광역시 동구
삼성동 중부소방서 주변,노상,대전광역시 동구 태전로 134,대전광역시 동구 삼성동 322-4,36.34036352,127.421931,대전광역시 동구
신안동 한국철도시설공단 뒷길,노상,대전광역시 동구 부흥길 68,대전광역시 동구 신안동 263-6,36.32998157,127.4370379,대전광역시 동구
신흥동 복합상가건물 뒤,노상,대전광역시 동구 대동천우안1길 162,대전광역시 동구 신흥동 11-3,36.32186358,127.4451471,대전광역시 동구
심영목재상사 앞,노상,대전광역시 동구 대전로900번길 20,대전광역시 동구 삼성동 296-1,36.33942403,127.4295259,대전광역시 동구
용운동 선량마을 노상주차장,노상,,대전광역시 동구 용운동 54,36.33671713,127.4652807,대전광역시 동구
용운동 주공저층아파트 담길,노상,대전광역시 동구 새울로 111,대전광역시 동구 용운동 282-10,36.32833412,127.4617505,대전광역시 동구
자양동 동아아파트 담길,노상,대전광역시 동구 성동로 67-4,대전광역시 동구 자양동 200-11,36.3415008,127.4508956,대전광역시 동구
판암1동 주공(아) 207-208동 담길,노상,대전광역시 동구 옥천로180번길 23,대전광역시 동구 판암동 202,36.31717451,127.4624685,대전광역시 동구
판암1동 주공(아) 209동 담길,노상,대전광역시 동구 옥천로180번길 23,대전광역시 동구 판암동 202,36.31717451,127.4624685,대전광역시 동구
판암2동 판암면옥 옆길,노상,대전광역시 동구 옻밭5길 189,대전광역시 동구 판암동 498-21,36.31886407,127.4520092,대전광역시 동구
판암동 신영유통 앞,노상,대전광역시 동구 판암로 62,대전광역시 동구 판암동 174-2,36.31731135,127.4666341,대전광역시 동구
합내길(구 가양1동사무소 앞),노상,대전광역시 동구 합내로 51-1,대전광역시 동구 가양동 446-34,36.34756523,127.4401233,대전광역시 동구
"현암1,8,10,11길(삼성동 343번지 주변)",노상,대전광역시 동구 대전천북로 136,대전광역시 동구 삼성동 342-4,36.34119665,127.4150092,대전광역시 동구
홍도동 동산어린이공원 주변,노상,대전광역시 동구 옛신탄진로81번길 20,대전광역시 동구 홍도동 111-1,36.34731727,127.4209012,대전광역시 동구
홍도동 시영(아) 1동 옆,노상,대전광역시 동구 대전로1002번길 24-4,대전광역시 동구 홍도동 135-1,36.34571712,127.4209599,대전광역시 동구
홍도동 시영(아) 3동 담길,노상,대전광역시 동구 대전로1002번길 24-6,대전광역시 동구 홍도동 135-2,36.34582192,127.4212169,대전광역시 동구
홍도동 시영아파트 주변,노상,,대전광역시 동구 홍도동 136-45,36.34558287,127.4200296,대전광역시 동구
"홍도동 평화로운@, 대호빌라 주변",노상,대전광역시 동구 홍도로33번길 40,대전광역시 동구 홍도동 89-46,36.34896131,127.4274186,대전광역시 동구
"홍도빌라 주변(흑정골길, 3길, 6길)",노상,대전광역시 동구 옛신탄진로 51-20,대전광역시 동구 홍도동 142-3,36.34460781,127.4225826,대전광역시 동구
가양동 노외공영주차장,노외,대전광역시 동구 매봉로 19,대전광역시 동구 가양동 435-16,36.34565328,127.4434456,대전광역시 동구
대동공영주차장,노외,대전광역시 동구 동대전로110번길 87,대전광역시 동구 대동 24-23,36.33058727,127.4492814,대전광역시 동구
신도시장 주차장,노외,대전광역시 동구 비래서로42번길 119,대전광역시 동구 가양동 39-6,36.34917344,127.4464207,대전광역시 동구
신한은행 노외공영주차장(제2주차장),노외,,대전광역시 동구 원동 51-12,36.32957338,127.4328648,대전광역시 동구
역전시장 공영주차장,노외,,대전광역시 동구 원동 406-2,36.32953053,127.4334249,대전광역시 동구
용전동노외공영주차장,노외,대전광역시 동구 동서대로1653번길 7,대전광역시 동구 용전동 145-2,36.3484307,127.4333715,대전광역시 동구
인동물류센터주변공영주차장,노외,대전광역시 동구 충무로 190-24,대전광역시 동구 인동 44-2,36.32028226,127.4374648,대전광역시 동구
중앙시장 공영주차빌딩 주차장(제1주차장),노외,대전광역시 동구 중앙로 200번길 70,대전광역시 동구 원동 85-1,36.32741824,127.4327468,대전광역시 동구
판암주공5·6단지주변공영주차장,노외,,대전광역시 동구 판암동 237-2,36.32316128,127.4603154,대전광역시 동구
도심형산업지원플랫폼주차장,노외,,대전광역시 동구 중동 10-16,36.332581,127.4293966,대전광역시 동구
대신동 하상주차장,노외,,대전광역시 동구 대동 248-1,36.33002999,127.4406617,대전광역시 동구
소제동 하상주차장,노외,,대전광역시 동구 소제동 299-453,36.3342683,127.4389258,대전광역시 동구
산성동제2노외,노외,대전광역시 중구 대둔산로 412,대전광역시 중구 산성동 284-9,,,대전광역시
산성시장공영주차장,노외,대전광역시 중구 대둔산로408번길 28,대전광역시 중구 산성동 282-5,,,대전광역시
선화동제1노외,노외,대전광역시 중구 대종로561번길 15,대전광역시 중구 선화동136-11,,,대전광역시
대흥동제4노외,노외,대전광역시 중구 보문로260번길 7,대전광역시 중구 대흥동 480,,,대전광역시
중촌동제1노외,노외,대전광역시 중구 목중로16번길 23,대전광역시 중구 중촌동 404-2,,,대전광역시
부사시장공영주차장,노외,대전광역시 중구 보문로48번길 13,대전광역시 중구 부사동 150-1,,,대전광역시
부사동제4노외,노외,대전광역시 중구 대종로 315번길 34-17,대전광역시 중구 부사동 133-2,,,대전광역시
유등천제2하상,노외,대전광역시 중구 뿌리공원로 47,대전광역시 중구 안영동 71-7,,,대전광역시
부사동사득4길,노상,대전광역시 중구 사득로67번길 23,대전광역시 중구 부사동 364-67,,,대전광역시
부사동소라티1길,노상,대전광역시 중구 보문로63번길 28,대전광역시 중구 부사동 300-8,,,대전광역시
사정동제1노상,노상,대전광역시 중구 대둔산로 350번길 6,대전광역시 중구 사정동 439-14,,,대전광역시
오류동제3노외,노외,대전광역시 중구 보문산공원로497번길 81-7,대전광역시 중구 대사동 197-6,,,대전광역시
사정동제2노상,노상,대전광역시 중구 대둔산로 326번길 23,대전광역시 중구 사정동 431-1,,,대전광역시
산성동제1노상,노상,대전광역시 중구 당디로 45,대전광역시 중구 산성동 37-1,,,대전광역시
부사동제2노외,노외,대전광역시 중구 부사로32번길 15,대전광역시 중구 부사동 366-3,,,대전광역시
부사동제3노외,노외,대전광역시 중구 부용로 32,대전광역시 중구 부사동 429-6,,,대전광역시
산성동제1노외,노외,대전광역시 중구 대둔산로364번길 9,대전광역시 중구 산성동 273-8,,,대전광역시
안영동제2노외,노외,대전광역시 중구 뿌리공원로23번길 54,대전광역시 중구 안영동 697,,,대전광역시
안영동제3노외,노외,대전광역시 중구 성산로 11,대전광역시 중구 안영동 663,,,대전광역시
침산동제1노외,노외,대전광역시 중구 산서로 180,대전광역시 중구 침산동 360,,,대전광역시
석교동제1노외,노외,대전광역시 중구 석교동 244-7,대전광역시 중구 석교동 244-7,,,대전광역시
대흥동제1노외,노외,대전광역시 중구 대종로452번길 27,대전광역시 중구 대흥동 125-1,,,대전광역시
으능정이상점가 고객주차장,노외,대전광역시 중구 중교로 79-1,대전광역시 중구 은행동 170-8,,,대전광역시
오류동제1노외,노외,대전광역시 중구 오류동 175-7,대전광역시 중구 오류동 175-7,,,대전광역시
오류동제2노외,노외,대전광역시 중구 계룡로 860-9,대전광역시 중구 오류동 149-3,,,대전광역시
문창시장공영주차장,노외,대전광역시 중구 대전천서로 279,대전광역시 중구 문창동 116-8,,,대전광역시
유천시장공영주차장,노외,대전광역시 중구 유천로47번길 22,대전광역시 중구 유천동 211-5,,,대전광역시
태평시장공영주차장,노외,대전광역시 중구 수침로55번길 56,대전광역시 중구 태평동 333-8,,,대전광역시
선화동제2노외,노외,대전광역시 중구 대종로521번길 29,대전광역시 중구 선화동 236-8,,,대전광역시
대흥동제3노외,노외,대전광역시 중구 대흥로111번길 35,대전광역시 중구 대흥동 452-30,,,대전광역시
대흥동제5노외,노외,대전광역시 중구 보문로230번길 37-2,대전광역시 중구 대흥동 452-74,,,대전광역시
태평2동제3노외,노외,대전광역시 중구 동서대로1207번길 15,대전광역시 중구 태평동 378-29,,,대전광역시
사정동제1공영,노외,대전광역시 중구 대둔산로323번길 43,대전광역시 중구 사정동 397,,,대전광역시
사정동제2공영,노외,대전광역시 중구 대둔산로 310-22,대전광역시 중구 사정동 403,,,대전광역시
안영동제1노외,노외,대전광역시 중구 뿌리공원로 47,대전광역시 중구 안영동 71-1,,,대전광역시
선화동제3노외,노외,대전광역시 중구 선화로 50,대전광역시 중구 선화동 889,,,대전광역시
문화2동제4노상,노상,대전광역시 중구 천근로 22,대전광역시 중구 문화동 475번지 일원,,,대전광역시
문화2동제5노상,노상,대전광역시 중구 보문산로215번길 43,대전광역시 중구 문화동 493-1번지 일원,,,대전광역시
부사동제1노상,노상,대전광역시 중구 충무로 139,대전광역시 중구 부사동 87-14,,,대전광역시
대흥동제6노외,노외,대전광역시 중구 테미로 20-7,대전광역시 중구 대흥동 326-34,,,대전광역시
부사동제2노상,노상,대전광역시 중구 대종로 373,대전광역시 중구 부사동 177-1,,,대전광역시
부사동제3노상,노상,대전광역시 중구 사득로75번길 23,대전광역시 중구 부사동 166-1,,,대전광역시
대사동제1노외,노외,대전광역시 중구 보문산공원로497번안길 26,대전광역시 중구 대사동 197,,,대전광역시
부사동운동장2길,노상,대전광역시 중구 충무로92번길 48,대전광역시 중구 부사동 209-72,,,대전광역시
대사동제2노외,노외,대전광역시 중구 보문산공원로497번길 81-7,대전광역시 중구 대사동 197-6,,,대전광역시
용두동제1노외,노외,대전광역시 중구 용두로 17-2,대전광역시 중구 용두동 31-1,,,대전광역시
태평2동제1노외,노외,대전광역시 중구 유등천동로 396,대전광역시 중구 태평동 510-165,,,대전광역시
태평2동제2노외,노외,대전광역시 중구 유등천동로 396,대전광역시 중구 태평동 423-22,,,대전광역시
목동제1노외,노외,대전광역시 중구 목동로8번길 68,대전광역시 중구 목동 1-123,,,대전광역시
문화동제1노외,노외,대전광역시 중구 과례로 22번길,대전광역시 중구 문화동 44-2,,,대전광역시
문화동제2노외,노외,대전광역시 중구 과례로22번길 49,대전광역시 중구 문화동 114-1,,,대전광역시
문화동제3노외,노외,대전광역시 중구 과례로 63,대전광역시 중구 문화동 263-10,,,대전광역시
문화동제4노외,노외,대전광역시 중구 문화로234번길 65,대전광역시 중구 문화동 259-6,,,대전광역시
문화동제5노외,노외,대전광역시 중구 문화로234번길 96,대전광역시 중구 문화동 231-11,,,대전광역시
문화동제6노외,노외,대전광역시 중구 보문산로 345-8,대전광역시 중구 문화동 11-223,,,대전광역시
문화동제7노외,노외,대전광역시 중구 과례로 83,대전광역시 중구 문화동 13-9,,,대전광역시
부사동제1노외,노외,대전광역시 중구 부용로 55,대전광역시 중구 부사동 423-6,,,대전광역시
로히트~가을햇살,노상,대전광역시 유성구 농대로2번길 9,대전광역시 유성구 어은동 104-17~104-9,,,대전광역시
문화2동제2노상,노상,대전광역시 중구 당디로36번길 113,대전광역시 중구 문화동 671-10,,,대전광역시
문화2동제3노상,노상,대전광역시 중구 문화로 170,대전광역시 중구 문화동 374-16,,,대전광역시
어은로58번길(카이스트옆),노상,대전광역시 유성구 어은로58번길,,36.36258889,127.3567446,대전광역시 유성구
이현동주차장,노외,대전광역시 대덕구 대청호수로1326번길 75,,36.41373892,127.466015,대전광역시 대덕구
